$GPGGA,114307.070,4847.276,N,00854.812,E,1,12,1.0,0.0,M,0.0,M,,*67
$GPGSA,A,3,01,02,03,04,05,06,07,08,09,10,11,12,1.0,1.0,1.0*30
$GPRMC,114307.070,A,4847.276,N,00854.812,E,000.1,090.0,131020,000.0,W*7A
$GPGGA,114308.070,4847.276,N,00854.812,E,1,12,1.0,0.0,M,0.0,M,,*68
$GPGSA,A,3,01,02,03,04,05,06,07,08,09,10,11,12,1.0,1.0,1.0*30
$GPRMC,114308.070,A,4847.276,N,00854.812,E,000.1,000.0,131020,000.0,W*7C
$GPGGA,114309.070,4847.276,N,00854.812,E,1,12,1.0,0.0,M,0.0,M,,*69
$GPGSA,A,3,01,02,03,04,05,06,07,08,09,10,11,12,1.0,1.0,1.0*30
$GPRMC,114309.070,A,4847.276,N,00854.812,E,000.0,000.0,131020,000.0,W*7C
$GPGGA,114310.070,4847.276,N,00854.812,E,1,12,1.0,0.0,M,0.0,M,,*61
$GPGSA,A,3,01,02,03,04,05,06,07,08,09,10,11,12,1.0,1.0,1.0*30
$GPRMC,114310.070,A,4847.276,N,00854.812,E,000.1,090.0,131020,000.0,W*7C
$GPGGA,114311.070,4847.276,N,00854.812,E,1,12,1.0,0.0,M,0.0,M,,*60
$GPGSA,A,3,01,02,03,04,05,06,07,08,09,10,11,12,1.0,1.0,1.0*30
$GPRMC,114311.070,A,4847.276,N,00854.812,E,002.2,163.4,131020,000.0,W*75
$GPGGA,114312.070,4847.275,N,00854.812,E,1,12,1.0,0.0,M,0.0,M,,*60
$GPGSA,A,3,01,02,03,04,05,06,07,08,09,10,11,12,1.0,1.0,1.0*30
$GPRMC,114312.070,A,4847.275,N,00854.812,E,002.2,191.3,131020,000.0,W*7F
$GPGGA,114313.070,4847.275,N,00854.812,E,1,12,1.0,0.0,M,0.0,M,,*61
$GPGSA,A,3,01,02,03,04,05,06,07,08,09,10,11,12,1.0,1.0,1.0*30
$GPRMC,114313.070,A,4847.275,N,00854.812,E,006.6,166.9,131020,000.0,W*7C
$GPGGA,114314.070,4847.273,N,00854.813,E,1,12,1.0,0.0,M,0.0,M,,*61
$GPGSA,A,3,01,02,03,04,05,06,07,08,09,10,11,12,1.0,1.0,1.0*30
$GPRMC,114314.070,A,4847.273,N,00854.813,E,017.6,164.0,131020,000.0,W*77
$GPGGA,114315.070,4847.268,N,00854.814,E,1,12,1.0,0.0,M,0.0,M,,*6D
$GPGSA,A,3,01,02,03,04,05,06,07,08,09,10,11,12,1.0,1.0,1.0*30
$GPRMC,114315.070,A,4847.268,N,00854.814,E,009.5,146.1,131020,000.0,W*76
$GPGGA,114316.070,4847.266,N,00854.816,E,1,12,1.0,0.0,M,0.0,M,,*62
$GPGSA,A,3,01,02,03,04,05,06,07,08,09,10,11,12,1.0,1.0,1.0*30
$GPRMC,114316.070,A,4847.266,N,00854.816,E,013.0,179.0,131020,000.0,W*7A
$GPGGA,114317.070,4847.262,N,00854.816,E,1,12,1.0,0.0,M,0.0,M,,*67
$GPGSA,A,3,01,02,03,04,05,06,07,08,09,10,11,12,1.0,1.0,1.0*30
$GPRMC,114317.070,A,4847.262,N,00854.816,E,000.1,090.0,131020,000.0,W*7A
$GPGGA,114318.070,4847.262,N,00854.816,E,1,12,1.0,0.0,M,0.0,M,,*68
$GPGSA,A,3,01,02,03,04,05,06,07,08,09,10,11,12,1.0,1.0,1.0*30
$GPRMC,114318.070,A,4847.262,N,00854.816,E,000.1,000.0,131020,000.0,W*7C
$GPGGA,114319.070,4847.262,N,00854.816,E,1,12,1.0,0.0,M,0.0,M,,*69
$GPGSA,A,3,01,02,03,04,05,06,07,08,09,10,11,12,1.0,1.0,1.0*30
$GPRMC,114319.070,A,4847.262,N,00854.816,E,006.5,170.6,131020,000.0,W*7F
$GPGGA,114320.070,4847.260,N,00854.816,E,1,12,1.0,0.0,M,0.0,M,,*61
$GPGSA,A,3,01,02,03,04,05,06,07,08,09,10,11,12,1.0,1.0,1.0*30
$GPRMC,114320.070,A,4847.260,N,00854.816,E,002.6,135.1,131020,000.0,W*76
$GPGGA,114321.070,4847.260,N,00854.817,E,1,12,1.0,0.0,M,0.0,M,,*61
$GPGSA,A,3,01,02,03,04,05,06,07,08,09,10,11,12,1.0,1.0,1.0*30
$GPRMC,114321.070,A,4847.260,N,00854.817,E,014.3,145.1,131020,000.0,W*73
$GPGGA,114322.070,4847.256,N,00854.819,E,1,12,1.0,0.0,M,0.0,M,,*69
$GPGSA,A,3,01,02,03,04,05,06,07,08,09,10,11,12,1.0,1.0,1.0*30
$GPRMC,114322.070,A,4847.256,N,00854.819,E,016.3,048.9,131020,000.0,W*7D
$GPGGA,114323.070,4847.260,N,00854.823,E,1,12,1.0,0.0,M,0.0,M,,*64
$GPGSA,A,3,01,02,03,04,05,06,07,08,09,10,11,12,1.0,1.0,1.0*30
$GPRMC,114323.070,A,4847.260,N,00854.823,E,010.5,090.0,131020,000.0,W*7C
$GPGGA,114324.070,4847.260,N,00854.828,E,1,12,1.0,0.0,M,0.0,M,,*68
$GPGSA,A,3,01,02,03,04,05,06,07,08,09,10,11,12,1.0,1.0,1.0*30
$GPRMC,114324.070,A,4847.260,N,00854.828,E,009.3,109.1,131020,000.0,W*7E
$GPGGA,114325.070,4847.258,N,00854.831,E,1,12,1.0,0.0,M,0.0,M,,*6A
$GPGSA,A,3,01,02,03,04,05,06,07,08,09,10,11,12,1.0,1.0,1.0*30
$GPRMC,114325.070,A,4847.258,N,00854.831,E,008.0,113.1,131020,000.0,W*75
$GPGGA,114326.070,4847.257,N,00854.834,E,1,12,1.0,0.0,M,0.0,M,,*63
$GPGSA,A,3,01,02,03,04,05,06,07,08,09,10,11,12,1.0,1.0,1.0*30
$GPRMC,114326.070,A,4847.257,N,00854.834,E,007.0,117.2,131020,000.0,W*74
$GPGGA,114327.070,4847.256,N,00854.836,E,1,12,1.0,0.0,M,0.0,M,,*61
$GPGSA,A,3,01,02,03,04,05,06,07,08,09,10,11,12,1.0,1.0,1.0*30
$GPRMC,114327.070,A,4847.256,N,00854.836,E,006.7,090.0,131020,000.0,W*7C
$GPGGA,114328.070,4847.256,N,00854.839,E,1,12,1.0,0.0,M,0.0,M,,*61
$GPGSA,A,3,01,02,03,04,05,06,07,08,09,10,11,12,1.0,1.0,1.0*30
$GPRMC,114328.070,A,4847.256,N,00854.839,E,007.2,078.2,131020,000.0,W*7C
$GPGGA,114329.070,4847.257,N,00854.842,E,1,12,1.0,0.0,M,0.0,M,,*6D
$GPGSA,A,3,01,02,03,04,05,06,07,08,09,10,11,12,1.0,1.0,1.0*30
$GPRMC,114329.070,A,4847.257,N,00854.842,E,007.4,064.5,131020,000.0,W*7C
$GPGGA,114330.070,4847.258,N,00854.845,E,1,12,1.0,0.0,M,0.0,M,,*6D
$GPGSA,A,3,01,02,03,04,05,06,07,08,09,10,11,12,1.0,1.0,1.0*30
$GPRMC,114330.070,A,4847.258,N,00854.845,E,006.2,076.2,131020,000.0,W*7F
$GPGGA,114331.070,4847.258,N,00854.847,E,1,12,1.0,0.0,M,0.0,M,,*6E
$GPGSA,A,3,01,02,03,04,05,06,07,08,09,10,11,12,1.0,1.0,1.0*30
$GPRMC,114331.070,A,4847.258,N,00854.847,E,006.1,075.9,131020,000.0,W*77
$GPGGA,114332.070,4847.259,N,00854.849,E,1,12,1.0,0.0,M,0.0,M,,*62
$GPGSA,A,3,01,02,03,04,05,06,07,08,09,10,11,12,1.0,1.0,1.0*30
$GPRMC,114332.070,A,4847.259,N,00854.849,E,006.8,061.5,131020,000.0,W*7B
$GPGGA,114333.070,4847.260,N,00854.852,E,1,12,1.0,0.0,M,0.0,M,,*63
$GPGSA,A,3,01,02,03,04,05,06,07,08,09,10,11,12,1.0,1.0,1.0*30
$GPRMC,114333.070,A,4847.260,N,00854.852,E,006.4,058.7,131020,000.0,W*7E
$GPGGA,114334.070,4847.261,N,00854.854,E,1,12,1.0,0.0,M,0.0,M,,*63
$GPGSA,A,3,01,02,03,04,05,06,07,08,09,10,11,12,1.0,1.0,1.0*30
$GPRMC,114334.070,A,4847.261,N,00854.854,E,006.8,077.4,131020,000.0,W*7C
$GPGGA,114335.070,4847.262,N,00854.856,E,1,12,1.0,0.0,M,0.0,M,,*63
$GPGSA,A,3,01,02,03,04,05,06,07,08,09,10,11,12,1.0,1.0,1.0*30
$GPRMC,114335.070,A,4847.262,N,00854.856,E,013.7,049.6,131020,000.0,W*78
$GPGGA,114336.070,4847.265,N,00854.860,E,1,12,1.0,0.0,M,0.0,M,,*62
$GPGSA,A,3,01,02,03,04,05,06,07,08,09,10,11,12,1.0,1.0,1.0*30
$GPRMC,114336.070,A,4847.265,N,00854.860,E,012.0,067.0,131020,000.0,W*75
$GPGGA,114337.070,4847.267,N,00854.864,E,1,12,1.0,0.0,M,0.0,M,,*65
$GPGSA,A,3,01,02,03,04,05,06,07,08,09,10,11,12,1.0,1.0,1.0*30
$GPRMC,114337.070,A,4847.267,N,00854.864,E,012.1,067.3,131020,000.0,W*70
$GPGGA,114338.070,4847.269,N,00854.868,E,1,12,1.0,0.0,M,0.0,M,,*68
$GPGSA,A,3,01,02,03,04,05,06,07,08,09,10,11,12,1.0,1.0,1.0*30
$GPRMC,114338.070,A,4847.269,N,00854.868,E,010.6,097.8,131020,000.0,W*7C
$GPGGA,114339.070,4847.268,N,00854.873,E,1,12,1.0,0.0,M,0.0,M,,*62
$GPGSA,A,3,01,02,03,04,05,06,07,08,09,10,11,12,1.0,1.0,1.0*30
$GPRMC,114339.070,A,4847.268,N,00854.873,E,016.9,051.6,131020,000.0,W*7B
$GPGGA,114340.070,4847.272,N,00854.877,E,1,12,1.0,0.0,M,0.0,M,,*63
$GPGSA,A,3,01,02,03,04,05,06,07,08,09,10,11,12,1.0,1.0,1.0*30
$GPRMC,114340.070,A,4847.272,N,00854.877,E,014.5,053.6,131020,000.0,W*76
$GPGGA,114341.070,4847.275,N,00854.881,E,1,12,1.0,0.0,M,0.0,M,,*6C
$GPGSA,A,3,01,02,03,04,05,06,07,08,09,10,11,12,1.0,1.0,1.0*30
$GPRMC,114341.070,A,4847.275,N,00854.881,E,013.9,030.2,131020,000.0,W*73
$GPGGA,114342.070,4847.278,N,00854.884,E,1,12,1.0,0.0,M,0.0,M,,*67
$GPGSA,A,3,01,02,03,04,05,06,07,08,09,10,11,12,1.0,1.0,1.0*30
$GPRMC,114342.070,A,4847.278,N,00854.884,E,013.1,347.8,131020,000.0,W*79
$GPGGA,114343.070,4847.282,N,00854.883,E,1,12,1.0,0.0,M,0.0,M,,*64
$GPGSA,A,3,01,02,03,04,05,06,07,08,09,10,11,12,1.0,1.0,1.0*30
$GPRMC,114343.070,A,4847.282,N,00854.883,E,013.8,309.9,131020,000.0,W*78
$GPGGA,114344.070,4847.285,N,00854.879,E,1,12,1.0,0.0,M,0.0,M,,*61
$GPGSA,A,3,01,02,03,04,05,06,07,08,09,10,11,12,1.0,1.0,1.0*30
$GPRMC,114344.070,A,4847.285,N,00854.879,E,015.6,293.8,131020,000.0,W*76
$GPGGA,114345.070,4847.287,N,00854.874,E,1,12,1.0,0.0,M,0.0,M,,*6F
$GPGSA,A,3,01,02,03,04,05,06,07,08,09,10,11,12,1.0,1.0,1.0*30
$GPRMC,114345.070,A,4847.287,N,00854.874,E,018.4,295.5,131020,000.0,W*7C
$GPGGA,114346.070,4847.290,N,00854.867,E,1,12,1.0,0.0,M,0.0,M,,*68
$GPGSA,A,3,01,02,03,04,05,06,07,08,09,10,11,12,1.0,1.0,1.0*30
$GPRMC,114346.070,A,4847.290,N,00854.867,E,016.7,285.6,131020,000.0,W*74
$GPGGA,114347.070,4847.292,N,00854.861,E,1,12,1.0,0.0,M,0.0,M,,*6D
$GPGSA,A,3,01,02,03,04,05,06,07,08,09,10,11,12,1.0,1.0,1.0*30
$GPRMC,114347.070,A,4847.292,N,00854.861,E,024.4,303.6,131020,000.0,W*7C
$GPGGA,114348.070,4847.297,N,00854.854,E,1,12,1.0,0.0,M,0.0,M,,*61
$GPGSA,A,3,01,02,03,04,05,06,07,08,09,10,11,12,1.0,1.0,1.0*30
$GPRMC,114348.070,A,4847.297,N,00854.854,E,020.6,292.2,131020,000.0,W*7B
$GPGGA,114349.070,4847.300,N,00854.846,E,1,12,1.0,0.0,M,0.0,M,,*6C
$GPGSA,A,3,01,02,03,04,05,06,07,08,09,10,11,12,1.0,1.0,1.0*30
$GPRMC,114349.070,A,4847.300,N,00854.846,E,021.7,296.3,131020,000.0,W*73
$GPGGA,114350.070,4847.303,N,00854.839,E,1,12,1.0,0.0,M,0.0,M,,*6F
$GPGSA,A,3,01,02,03,04,05,06,07,08,09,10,11,12,1.0,1.0,1.0*30
$GPRMC,114350.070,A,4847.303,N,00854.839,E,020.7,292.0,131020,000.0,W*76
$GPGGA,114351.070,4847.306,N,00854.831,E,1,12,1.0,0.0,M,0.0,M,,*63
$GPGSA,A,3,01,02,03,04,05,06,07,08,09,10,11,12,1.0,1.0,1.0*30
$GPRMC,114351.070,A,4847.306,N,00854.831,E,021.9,295.9,131020,000.0,W*7B
$GPGGA,114352.070,4847.310,N,00854.824,E,1,12,1.0,0.0,M,0.0,M,,*63
$GPGSA,A,3,01,02,03,04,05,06,07,08,09,10,11,12,1.0,1.0,1.0*30
$GPRMC,114352.070,A,4847.310,N,00854.824,E,020.8,291.9,131020,000.0,W*7F
$GPGGA,114353.070,4847.313,N,00854.817,E,1,12,1.0,0.0,M,0.0,M,,*61
$GPGSA,A,3,01,02,03,04,05,06,07,08,09,10,11,12,1.0,1.0,1.0*30
$GPRMC,114353.070,A,4847.313,N,00854.817,E,020.8,291.9,131020,000.0,W*7D
$GPGGA,114354.070,4847.316,N,00854.809,E,1,12,1.0,0.0,M,0.0,M,,*6C
$GPGSA,A,3,01,02,03,04,05,06,07,08,09,10,11,12,1.0,1.0,1.0*30
$GPRMC,114354.070,A,4847.316,N,00854.809,E,021.6,296.5,131020,000.0,W*74
$GPGGA,114355.070,4847.320,N,00854.802,E,1,12,1.0,0.0,M,0.0,M,,*63
$GPGSA,A,3,01,02,03,04,05,06,07,08,09,10,11,12,1.0,1.0,1.0*30
$GPRMC,114355.070,A,4847.320,N,00854.802,E,019.9,293.2,131020,000.0,W*7D
$GPGGA,114356.070,4847.323,N,00854.795,E,1,12,1.0,0.0,M,0.0,M,,*62
$GPGSA,A,3,01,02,03,04,05,06,07,08,09,10,11,12,1.0,1.0,1.0*30
$GPRMC,114356.070,A,4847.323,N,00854.795,E,026.7,312.4,131020,000.0,W*70
$GPGGA,114357.070,4847.329,N,00854.788,E,1,12,1.0,0.0,M,0.0,M,,*65
$GPGSA,A,3,01,02,03,04,05,06,07,08,09,10,11,12,1.0,1.0,1.0*30
$GPRMC,114357.070,A,4847.329,N,00854.788,E,030.9,287.0,131020,000.0,W*77
$GPGGA,114358.070,4847.332,N,00854.776,E,1,12,1.0,0.0,M,0.0,M,,*61
$GPGSA,A,3,01,02,03,04,05,06,07,08,09,10,11,12,1.0,1.0,1.0*30
$GPRMC,114358.070,A,4847.332,N,00854.776,E,014.6,288.1,131020,000.0,W*74
$GPGGA,114359.070,4847.334,N,00854.771,E,1,12,1.0,0.0,M,0.0,M,,*61
$GPGSA,A,3,01,02,03,04,05,06,07,08,09,10,11,12,1.0,1.0,1.0*30
$GPRMC,114359.070,A,4847.334,N,00854.771,E,024.5,321.1,131020,000.0,W*76
$GPGGA,114400.070,4847.340,N,00854.766,E,1,12,1.0,0.0,M,0.0,M,,*6F
$GPGSA,A,3,01,02,03,04,05,06,07,08,09,10,11,12,1.0,1.0,1.0*30
$GPRMC,114400.070,A,4847.340,N,00854.766,E,019.2,324.2,131020,000.0,W*77
$GPGGA,114401.070,4847.345,N,00854.762,E,1,12,1.0,0.0,M,0.0,M,,*6F
$GPGSA,A,3,01,02,03,04,05,06,07,08,09,10,11,12,1.0,1.0,1.0*30
$GPRMC,114401.070,A,4847.345,N,00854.762,E,006.8,298.5,131020,000.0,W*72
$GPGGA,114402.070,4847.346,N,00854.760,E,1,12,1.0,0.0,M,0.0,M,,*6D
$GPGSA,A,3,01,02,03,04,05,06,07,08,09,10,11,12,1.0,1.0,1.0*30
$GPRMC,114402.070,A,4847.346,N,00854.760,E,038.9,359.7,131020,000.0,W*72
$GPGGA,114403.070,4847.357,N,00854.760,E,1,12,1.0,0.0,M,0.0,M,,*6C
$GPGSA,A,3,01,02,03,04,05,06,07,08,09,10,11,12,1.0,1.0,1.0*30
$GPRMC,114403.070,A,4847.357,N,00854.760,E,024.4,019.0,131020,000.0,W*73
$GPGGA,114404.070,4847.363,N,00854.762,E,1,12,1.0,0.0,M,0.0,M,,*6E
$GPGSA,A,3,01,02,03,04,05,06,07,08,09,10,11,12,1.0,1.0,1.0*30
$GPRMC,114404.070,A,4847.363,N,00854.762,E,025.2,027.7,131020,000.0,W*7C
$GPGGA,114405.070,4847.370,N,00854.766,E,1,12,1.0,0.0,M,0.0,M,,*69
$GPGSA,A,3,01,02,03,04,05,06,07,08,09,10,11,12,1.0,1.0,1.0*30
$GPRMC,114405.070,A,4847.370,N,00854.766,E,029.0,021.3,131020,000.0,W*77
$GPGGA,114406.070,4847.378,N,00854.769,E,1,12,1.0,0.0,M,0.0,M,,*6D
$GPGSA,A,3,01,02,03,04,05,06,07,08,09,10,11,12,1.0,1.0,1.0*30
$GPRMC,114406.070,A,4847.378,N,00854.769,E,058.8,010.0,131020,000.0,W*7C
$GPGGA,114407.070,4847.394,N,00854.772,E,1,12,1.0,0.0,M,0.0,M,,*64
$GPGSA,A,3,01,02,03,04,05,06,07,08,09,10,11,12,1.0,1.0,1.0*30
$GPRMC,114407.070,A,4847.394,N,00854.772,E,034.2,026.8,131020,000.0,W*78
$GPGGA,114408.070,4847.403,N,00854.776,E,1,12,1.0,0.0,M,0.0,M,,*66
$GPGSA,A,3,01,02,03,04,05,06,07,08,09,10,11,12,1.0,1.0,1.0*30
$GPRMC,114408.070,A,4847.403,N,00854.776,E,034.8,009.2,131020,000.0,W*77
$GPGGA,114409.070,4847.413,N,00854.778,E,1,12,1.0,0.0,M,0.0,M,,*68
$GPGSA,A,3,01,02,03,04,05,06,07,08,09,10,11,12,1.0,1.0,1.0*30
$GPRMC,114409.070,A,4847.413,N,00854.778,E,036.9,007.0,131020,000.0,W*76
$GPGGA,114410.070,4847.423,N,00854.779,E,1,12,1.0,0.0,M,0.0,M,,*62
$GPGSA,A,3,01,02,03,04,05,06,07,08,09,10,11,12,1.0,1.0,1.0*30
$GPRMC,114410.070,A,4847.423,N,00854.779,E,036.8,001.7,131020,000.0,W*7C
$GPGGA,114411.070,4847.433,N,00854.780,E,1,12,1.0,0.0,M,0.0,M,,*64
$GPGSA,A,3,01,02,03,04,05,06,07,08,09,10,11,12,1.0,1.0,1.0*30
$GPRMC,114411.070,A,4847.433,N,00854.780,E,038.9,000.0,131020,000.0,W*73
$GPGGA,114412.070,4847.444,N,00854.780,E,1,12,1.0,0.0,M,0.0,M,,*67
$GPGSA,A,3,01,02,03,04,05,06,07,08,09,10,11,12,1.0,1.0,1.0*30
$GPRMC,114412.070,A,4847.444,N,00854.780,E,036.8,356.3,131020,000.0,W*7C
$GPGGA,114413.070,4847.454,N,00854.779,E,1,12,1.0,0.0,M,0.0,M,,*61
$GPGSA,A,3,01,02,03,04,05,06,07,08,09,10,11,12,1.0,1.0,1.0*30
$GPRMC,114413.070,A,4847.454,N,00854.779,E,043.4,351.5,131020,000.0,W*75
$GPGGA,114414.070,4847.466,N,00854.777,E,1,12,1.0,0.0,M,0.0,M,,*69
$GPGSA,A,3,01,02,03,04,05,06,07,08,09,10,11,12,1.0,1.0,1.0*30
$GPRMC,114414.070,A,4847.466,N,00854.777,E,172.5,347.8,131020,000.0,W*75
$GPGGA,114415.070,4847.513,N,00854.767,E,1,12,1.0,0.0,M,0.0,M,,*6A
$GPGSA,A,3,01,02,03,04,05,06,07,08,09,10,11,12,1.0,1.0,1.0*30
$GPRMC,114415.070,A,4847.513,N,00854.767,E,043.5,350.4,131020,000.0,W*7F
$GPGGA,114416.070,4847.525,N,00854.765,E,1,12,1.0,0.0,M,0.0,M,,*6E
$GPGSA,A,3,01,02,03,04,05,06,07,08,09,10,11,12,1.0,1.0,1.0*30
$GPRMC,114416.070,A,4847.525,N,00854.765,E,043.6,349.0,131020,000.0,W*74
$GPGGA,114417.070,4847.537,N,00854.762,E,1,12,1.0,0.0,M,0.0,M,,*6B
$GPGSA,A,3,01,02,03,04,05,06,07,08,09,10,11,12,1.0,1.0,1.0*30
$GPRMC,114417.070,A,4847.537,N,00854.762,E,062.8,186.3,131020,000.0,W*7E
$GPGGA,114418.070,4847.520,N,00854.761,E,1,12,1.0,0.0,M,0.0,M,,*61
$GPGSA,A,3,01,02,03,04,05,06,07,08,09,10,11,12,1.0,1.0,1.0*30
$GPRMC,114418.070,A,4847.520,N,00854.761,E,151.4,357.6,131020,000.0,W*72
$GPGGA,114419.070,4847.562,N,00854.759,E,1,12,1.0,0.0,M,0.0,M,,*6D
$GPGSA,A,3,01,02,03,04,05,06,07,08,09,10,11,12,1.0,1.0,1.0*30
$GPRMC,114419.070,A,4847.562,N,00854.759,E,043.4,351.5,131020,000.0,W*79
$GPGGA,114420.070,4847.574,N,00854.757,E,1,12,1.0,0.0,M,0.0,M,,*6E
$GPGSA,A,3,01,02,03,04,05,06,07,08,09,10,11,12,1.0,1.0,1.0*30
$GPRMC,114420.070,A,4847.574,N,00854.757,E,045.4,356.2,131020,000.0,W*7C
$GPGGA,114421.070,4847.587,N,00854.756,E,1,12,1.0,0.0,M,0.0,M,,*62
$GPGSA,A,3,01,02,03,04,05,06,07,08,09,10,11,12,1.0,1.0,1.0*30
$GPRMC,114421.070,A,4847.587,N,00854.756,E,045.4,358.4,131020,000.0,W*78
$GPGGA,114422.070,4847.599,N,00854.756,E,1,12,1.0,0.0,M,0.0,M,,*6E
$GPGSA,A,3,01,02,03,04,05,06,07,08,09,10,11,12,1.0,1.0,1.0*30
$GPRMC,114422.070,A,4847.599,N,00854.756,E,045.4,000.3,131020,000.0,W*7D
$GPGGA,114423.070,4847.612,N,00854.756,E,1,12,1.0,0.0,M,0.0,M,,*6F
$GPGSA,A,3,01,02,03,04,05,06,07,08,09,10,11,12,1.0,1.0,1.0*30
$GPRMC,114423.070,A,4847.612,N,00854.756,E,037.0,009.6,131020,000.0,W*71
$GPGGA,114424.070,4847.622,N,00854.758,E,1,12,1.0,0.0,M,0.0,M,,*65
$GPGSA,A,3,01,02,03,04,05,06,07,08,09,10,11,12,1.0,1.0,1.0*30
$GPRMC,114424.070,A,4847.622,N,00854.758,E,052.2,010.1,131020,000.0,W*75
$GPGGA,114425.070,4847.636,N,00854.760,E,1,12,1.0,0.0,M,0.0,M,,*6A
$GPGSA,A,3,01,02,03,04,05,06,07,08,09,10,11,12,1.0,1.0,1.0*30
$GPRMC,114425.070,A,4847.636,N,00854.760,E,044.0,016.4,131020,000.0,W*7C
$GPGGA,114426.070,4847.648,N,00854.764,E,1,12,1.0,0.0,M,0.0,M,,*64
$GPGSA,A,3,01,02,03,04,05,06,07,08,09,10,11,12,1.0,1.0,1.0*30
$GPRMC,114426.070,A,4847.648,N,00854.764,E,044.2,017.7,131020,000.0,W*72
$GPGGA,114427.070,4847.660,N,00854.768,E,1,12,1.0,0.0,M,0.0,M,,*63
$GPGSA,A,3,01,02,03,04,05,06,07,08,09,10,11,12,1.0,1.0,1.0*30
$GPRMC,114427.070,A,4847.660,N,00854.768,E,046.1,014.6,131020,000.0,W*76
$GPGGA,114428.070,4847.673,N,00854.771,E,1,12,1.0,0.0,M,0.0,M,,*66
$GPGSA,A,3,01,02,03,04,05,06,07,08,09,10,11,12,1.0,1.0,1.0*30
$GPRMC,114428.070,A,4847.673,N,00854.771,E,032.9,015.2,131020,000.0,W*7D
$GPGGA,114429.070,4847.682,N,00854.773,E,1,12,1.0,0.0,M,0.0,M,,*6B
$GPGSA,A,3,01,02,03,04,05,06,07,08,09,10,11,12,1.0,1.0,1.0*30
$GPRMC,114429.070,A,4847.682,N,00854.773,E,043.3,004.0,131020,000.0,W*7E
$GPGGA,114430.070,4847.694,N,00854.774,E,1,12,1.0,0.0,M,0.0,M,,*63
$GPGSA,A,3,01,02,03,04,05,06,07,08,09,10,11,12,1.0,1.0,1.0*30
$GPRMC,114430.070,A,4847.694,N,00854.774,E,056.2,356.9,131020,000.0,W*7E
$GPGGA,114431.070,4847.710,N,00854.773,E,1,12,1.0,0.0,M,0.0,M,,*68
$GPGSA,A,3,01,02,03,04,05,06,07,08,09,10,11,12,1.0,1.0,1.0*30
$GPRMC,114431.070,A,4847.710,N,00854.773,E,085.3,346.9,131020,000.0,W*7B
$GPGGA,114432.070,4847.733,N,00854.768,E,1,12,1.0,0.0,M,0.0,M,,*60
$GPGSA,A,3,01,02,03,04,05,06,07,08,09,10,11,12,1.0,1.0,1.0*30
$GPRMC,114432.070,A,4847.733,N,00854.768,E,043.8,346.0,131020,000.0,W*7B
$GPGGA,114433.070,4847.745,N,00854.765,E,1,12,1.0,0.0,M,0.0,M,,*6D
$GPGSA,A,3,01,02,03,04,05,06,07,08,09,10,11,12,1.0,1.0,1.0*30
$GPRMC,114433.070,A,4847.745,N,00854.765,E,039.7,342.5,131020,000.0,W*75
$GPGGA,114434.070,4847.756,N,00854.761,E,1,12,1.0,0.0,M,0.0,M,,*6C
$GPGSA,A,3,01,02,03,04,05,06,07,08,09,10,11,12,1.0,1.0,1.0*30
$GPRMC,114434.070,A,4847.756,N,00854.761,E,039.7,342.5,131020,000.0,W*74
$GPGGA,114435.070,4847.767,N,00854.758,E,1,12,1.0,0.0,M,0.0,M,,*65
$GPGSA,A,3,01,02,03,04,05,06,07,08,09,10,11,12,1.0,1.0,1.0*30
$GPRMC,114435.070,A,4847.767,N,00854.758,E,039.7,342.8,131020,000.0,W*70
$GPGGA,114436.070,4847.777,N,00854.755,E,1,12,1.0,0.0,M,0.0,M,,*6A
$GPGSA,A,3,01,02,03,04,05,06,07,08,09,10,11,12,1.0,1.0,1.0*30
$GPRMC,114436.070,A,4847.777,N,00854.755,E,039.7,343.4,131020,000.0,W*72
$GPGGA,114437.070,4847.788,N,00854.751,E,1,12,1.0,0.0,M,0.0,M,,*6F
$GPGSA,A,3,01,02,03,04,05,06,07,08,09,10,11,12,1.0,1.0,1.0*30
$GPRMC,114437.070,A,4847.788,N,00854.751,E,037.6,341.5,131020,000.0,W*7B
$GPGGA,114438.070,4847.798,N,00854.748,E,1,12,1.0,0.0,M,0.0,M,,*69
$GPGSA,A,3,01,02,03,04,05,06,07,08,09,10,11,12,1.0,1.0,1.0*30
$GPRMC,114438.070,A,4847.798,N,00854.748,E,076.0,351.6,131020,000.0,W*7C
$GPGGA,114439.070,4847.819,N,00854.745,E,1,12,1.0,0.0,M,0.0,M,,*63
$GPGSA,A,3,01,02,03,04,05,06,07,08,09,10,11,12,1.0,1.0,1.0*30
$GPRMC,114439.070,A,4847.819,N,00854.745,E,039.4,329.9,131020,000.0,W*79
$GPGGA,114440.070,4847.830,N,00854.739,E,1,12,1.0,0.0,M,0.0,M,,*6D
$GPGSA,A,3,01,02,03,04,05,06,07,08,09,10,11,12,1.0,1.0,1.0*30
$GPRMC,114440.070,A,4847.830,N,00854.739,E,037.3,344.6,131020,000.0,W*7A
$GPGGA,114441.070,4847.840,N,00854.736,E,1,12,1.0,0.0,M,0.0,M,,*64
$GPGSA,A,3,01,02,03,04,05,06,07,08,09,10,11,12,1.0,1.0,1.0*30
$GPRMC,114441.070,A,4847.840,N,00854.736,E,035.3,342.7,131020,000.0,W*76
$GPGGA,114442.070,4847.849,N,00854.733,E,1,12,1.0,0.0,M,0.0,M,,*6B
$GPGSA,A,3,01,02,03,04,05,06,07,08,09,10,11,12,1.0,1.0,1.0*30
$GPRMC,114442.070,A,4847.849,N,00854.733,E,024.8,335.6,131020,000.0,W*73
$GPGGA,114443.070,4847.856,N,00854.730,E,1,12,1.0,0.0,M,0.0,M,,*67
$GPGSA,A,3,01,02,03,04,05,06,07,08,09,10,11,12,1.0,1.0,1.0*30
$GPRMC,114443.070,A,4847.856,N,00854.730,E,048.0,348.0,131020,000.0,W*71
$GPGGA,114444.070,4847.869,N,00854.727,E,1,12,1.0,0.0,M,0.0,M,,*6A
$GPGSA,A,3,01,02,03,04,05,06,07,08,09,10,11,12,1.0,1.0,1.0*30
$GPRMC,114444.070,A,4847.869,N,00854.727,E,069.5,352.0,131020,000.0,W*71
$GPGGA,114445.070,4847.888,N,00854.725,E,1,12,1.0,0.0,M,0.0,M,,*66
$GPGSA,A,3,01,02,03,04,05,06,07,08,09,10,11,12,1.0,1.0,1.0*30
$GPRMC,114445.070,A,4847.888,N,00854.725,E,039.2,330.6,131020,000.0,W*7D
$GPGGA,114446.070,4847.899,N,00854.719,E,1,12,1.0,0.0,M,0.0,M,,*6A
$GPGSA,A,3,01,02,03,04,05,06,07,08,09,10,11,12,1.0,1.0,1.0*30
$GPRMC,114446.070,A,4847.899,N,00854.719,E,037.3,344.6,131020,000.0,W*7D
$GPGGA,114447.070,4847.909,N,00854.716,E,1,12,1.0,0.0,M,0.0,M,,*6C
$GPGSA,A,3,01,02,03,04,05,06,07,08,09,10,11,12,1.0,1.0,1.0*30
$GPRMC,114447.070,A,4847.909,N,00854.716,E,026.8,338.3,131020,000.0,W*7E
$GPGGA,114448.070,4847.916,N,00854.713,E,1,12,1.0,0.0,M,0.0,M,,*68
$GPGSA,A,3,01,02,03,04,05,06,07,08,09,10,11,12,1.0,1.0,1.0*30
$GPRMC,114448.070,A,4847.916,N,00854.713,E,045.9,347.2,131020,000.0,W*77
$GPGGA,114449.070,4847.929,N,00854.710,E,1,12,1.0,0.0,M,0.0,M,,*66
$GPGSA,A,3,01,02,03,04,05,06,07,08,09,10,11,12,1.0,1.0,1.0*30
$GPRMC,114449.070,A,4847.929,N,00854.710,E,037.3,344.6,131020,000.0,W*71
$GPGGA,114450.070,4847.939,N,00854.707,E,1,12,1.0,0.0,M,0.0,M,,*69
$GPGSA,A,3,01,02,03,04,05,06,07,08,09,10,11,12,1.0,1.0,1.0*30
$GPRMC,114450.070,A,4847.939,N,00854.707,E,039.5,345.1,131020,000.0,W*70
$GPGGA,114451.070,4847.950,N,00854.705,E,1,12,1.0,0.0,M,0.0,M,,*65
$GPGSA,A,3,01,02,03,04,05,06,07,08,09,10,11,12,1.0,1.0,1.0*30
$GPRMC,114451.070,A,4847.950,N,00854.705,E,037.5,343.1,131020,000.0,W*74
$GPGGA,114452.070,4847.960,N,00854.701,E,1,12,1.0,0.0,M,0.0,M,,*61
$GPGSA,A,3,01,02,03,04,05,06,07,08,09,10,11,12,1.0,1.0,1.0*30
$GPRMC,114452.070,A,4847.960,N,00854.701,E,037.5,343.4,131020,000.0,W*75
$GPGGA,114453.070,4847.970,N,00854.698,E,1,12,1.0,0.0,M,0.0,M,,*60
$GPGSA,A,3,01,02,03,04,05,06,07,08,09,10,11,12,1.0,1.0,1.0*30
$GPRMC,114453.070,A,4847.970,N,00854.698,E,037.4,344.0,131020,000.0,W*76
$GPGGA,114454.070,4847.980,N,00854.695,E,1,12,1.0,0.0,M,0.0,M,,*65
$GPGSA,A,3,01,02,03,04,05,06,07,08,09,10,11,12,1.0,1.0,1.0*30
$GPRMC,114454.070,A,4847.980,N,00854.695,E,039.5,345.1,131020,000.0,W*7C
$GPGGA,114455.070,4847.991,N,00854.693,E,1,12,1.0,0.0,M,0.0,M,,*62
$GPGSA,A,3,01,02,03,04,05,06,07,08,09,10,11,12,1.0,1.0,1.0*30
$GPRMC,114455.070,A,4847.991,N,00854.693,E,039.5,344.8,131020,000.0,W*73
$GPGGA,114456.070,4848.002,N,00854.690,E,1,12,1.0,0.0,M,0.0,M,,*6E
$GPGSA,A,3,01,02,03,04,05,06,07,08,09,10,11,12,1.0,1.0,1.0*30
$GPRMC,114456.070,A,4848.002,N,00854.690,E,037.4,343.7,131020,000.0,W*78
$GPGGA,114457.070,4848.012,N,00854.687,E,1,12,1.0,0.0,M,0.0,M,,*68
$GPGSA,A,3,01,02,03,04,05,06,07,08,09,10,11,12,1.0,1.0,1.0*30
$GPRMC,114457.070,A,4848.012,N,00854.687,E,039.6,344.2,131020,000.0,W*70
$GPGGA,114458.070,4848.023,N,00854.684,E,1,12,1.0,0.0,M,0.0,M,,*66
$GPGSA,A,3,01,02,03,04,05,06,07,08,09,10,11,12,1.0,1.0,1.0*30
$GPRMC,114458.070,A,4848.023,N,00854.684,E,037.4,344.3,131020,000.0,W*73
$GPGGA,114459.070,4848.033,N,00854.681,E,1,12,1.0,0.0,M,0.0,M,,*63
$GPGSA,A,3,01,02,03,04,05,06,07,08,09,10,11,12,1.0,1.0,1.0*30
$GPRMC,114459.070,A,4848.033,N,00854.681,E,039.4,346.0,131020,000.0,W*79
$GPGGA,114500.070,4848.044,N,00854.678,E,1,12,1.0,0.0,M,0.0,M,,*68
$GPGSA,A,3,01,02,03,04,05,06,07,08,09,10,11,12,1.0,1.0,1.0*30
$GPRMC,114500.070,A,4848.044,N,00854.678,E,037.0,349.1,131020,000.0,W*76
$GPGGA,114501.070,4848.054,N,00854.676,E,1,12,1.0,0.0,M,0.0,M,,*66
$GPGSA,A,3,01,02,03,04,05,06,07,08,09,10,11,12,1.0,1.0,1.0*30
$GPRMC,114501.070,A,4848.054,N,00854.676,E,039.0,354.6,131020,000.0,W*7D
$GPGGA,114502.070,4848.065,N,00854.675,E,1,12,1.0,0.0,M,0.0,M,,*64
$GPGSA,A,3,01,02,03,04,05,06,07,08,09,10,11,12,1.0,1.0,1.0*30
$GPRMC,114502.070,A,4848.065,N,00854.675,E,041.1,359.7,131020,000.0,W*7D
$GPGGA,114503.070,4848.076,N,00854.675,E,1,12,1.0,0.0,M,0.0,M,,*67
$GPGSA,A,3,01,02,03,04,05,06,07,08,09,10,11,12,1.0,1.0,1.0*30
$GPRMC,114503.070,A,4848.076,N,00854.675,E,038.9,003.5,131020,000.0,W*76
$GPGGA,114504.070,4848.087,N,00854.676,E,1,12,1.0,0.0,M,0.0,M,,*6D
$GPGSA,A,3,01,02,03,04,05,06,07,08,09,10,11,12,1.0,1.0,1.0*30
$GPRMC,114504.070,A,4848.087,N,00854.676,E,039.0,004.7,131020,000.0,W*71
$GPGGA,114505.070,4848.098,N,00854.676,E,1,12,1.0,0.0,M,0.0,M,,*62
$GPGSA,A,3,01,02,03,04,05,06,07,08,09,10,11,12,1.0,1.0,1.0*30
$GPRMC,114505.070,A,4848.098,N,00854.676,E,039.1,009.4,131020,000.0,W*71
$GPGGA,114506.070,4848.109,N,00854.678,E,1,12,1.0,0.0,M,0.0,M,,*66
$GPGSA,A,3,01,02,03,04,05,06,07,08,09,10,11,12,1.0,1.0,1.0*30
$GPRMC,114506.070,A,4848.109,N,00854.678,E,039.3,012.2,131020,000.0,W*7B
$GPGGA,114507.070,4848.119,N,00854.681,E,1,12,1.0,0.0,M,0.0,M,,*60
$GPGSA,A,3,01,02,03,04,05,06,07,08,09,10,11,12,1.0,1.0,1.0*30
$GPRMC,114507.070,A,4848.119,N,00854.681,E,041.5,012.4,131020,000.0,W*72
$GPGGA,114508.070,4848.131,N,00854.683,E,1,12,1.0,0.0,M,0.0,M,,*67
$GPGSA,A,3,01,02,03,04,05,06,07,08,09,10,11,12,1.0,1.0,1.0*30
$GPRMC,114508.070,A,4848.131,N,00854.683,E,039.4,014.0,131020,000.0,W*79
$GPGGA,114509.070,4848.142,N,00854.686,E,1,12,1.0,0.0,M,0.0,M,,*67
$GPGSA,A,3,01,02,03,04,05,06,07,08,09,10,11,12,1.0,1.0,1.0*30
$GPRMC,114509.070,A,4848.142,N,00854.686,E,041.6,013.3,131020,000.0,W*70
$GPGGA,114510.070,4848.153,N,00854.688,E,1,12,1.0,0.0,M,0.0,M,,*61
$GPGSA,A,3,01,02,03,04,05,06,07,08,09,10,11,12,1.0,1.0,1.0*30
$GPRMC,114510.070,A,4848.153,N,00854.688,E,039.5,014.6,131020,000.0,W*78
$GPGGA,114511.070,4848.164,N,00854.691,E,1,12,1.0,0.0,M,0.0,M,,*6C
$GPGSA,A,3,01,02,03,04,05,06,07,08,09,10,11,12,1.0,1.0,1.0*30
$GPRMC,114511.070,A,4848.164,N,00854.691,E,039.4,013.4,131020,000.0,W*71
$GPGGA,114512.070,4848.175,N,00854.694,E,1,12,1.0,0.0,M,0.0,M,,*6A
$GPGSA,A,3,01,02,03,04,05,06,07,08,09,10,11,12,1.0,1.0,1.0*30
$GPRMC,114512.070,A,4848.175,N,00854.694,E,039.3,012.8,131020,000.0,W*7D
$GPGGA,114513.070,4848.185,N,00854.696,E,1,12,1.0,0.0,M,0.0,M,,*66
$GPGSA,A,3,01,02,03,04,05,06,07,08,09,10,11,12,1.0,1.0,1.0*30
$GPRMC,114513.070,A,4848.185,N,00854.696,E,039.3,012.2,131020,000.0,W*7B
$GPGGA,114514.070,4848.196,N,00854.699,E,1,12,1.0,0.0,M,0.0,M,,*6C
$GPGSA,A,3,01,02,03,04,05,06,07,08,09,10,11,12,1.0,1.0,1.0*30
$GPRMC,114514.070,A,4848.196,N,00854.699,E,039.1,009.4,131020,000.0,W*7F
$GPGGA,114515.070,4848.207,N,00854.701,E,1,12,1.0,0.0,M,0.0,M,,*66
$GPGSA,A,3,01,02,03,04,05,06,07,08,09,10,11,12,1.0,1.0,1.0*30
$GPRMC,114515.070,A,4848.207,N,00854.701,E,041.4,011.6,131020,000.0,W*74
$GPGGA,114516.070,4848.218,N,00854.703,E,1,12,1.0,0.0,M,0.0,M,,*69
$GPGSA,A,3,01,02,03,04,05,06,07,08,09,10,11,12,1.0,1.0,1.0*30
$GPRMC,114516.070,A,4848.218,N,00854.703,E,041.5,012.1,131020,000.0,W*7E
$GPGGA,114517.070,4848.230,N,00854.705,E,1,12,1.0,0.0,M,0.0,M,,*64
$GPGSA,A,3,01,02,03,04,05,06,07,08,09,10,11,12,1.0,1.0,1.0*30
$GPRMC,114517.070,A,4848.230,N,00854.705,E,041.5,012.4,131020,000.0,W*76
$GPGGA,114518.070,4848.241,N,00854.708,E,1,12,1.0,0.0,M,0.0,M,,*60
$GPGSA,A,3,01,02,03,04,05,06,07,08,09,10,11,12,1.0,1.0,1.0*30
$GPRMC,114518.070,A,4848.241,N,00854.708,E,041.5,011.8,131020,000.0,W*7D
$GPGGA,114519.070,4848.253,N,00854.710,E,1,12,1.0,0.0,M,0.0,M,,*6B
$GPGSA,A,3,01,02,03,04,05,06,07,08,09,10,11,12,1.0,1.0,1.0*30
$GPRMC,114519.070,A,4848.253,N,00854.710,E,045.7,010.0,131020,000.0,W*79
$GPGGA,114520.070,4848.265,N,00854.712,E,1,12,1.0,0.0,M,0.0,M,,*66
$GPGSA,A,3,01,02,03,04,05,06,07,08,09,10,11,12,1.0,1.0,1.0*30
$GPRMC,114520.070,A,4848.265,N,00854.712,E,043.2,002.3,131020,000.0,W*77
$GPGGA,114521.070,4848.277,N,00854.713,E,1,12,1.0,0.0,M,0.0,M,,*65
$GPGSA,A,3,01,02,03,04,05,06,07,08,09,10,11,12,1.0,1.0,1.0*30
$GPRMC,114521.070,A,4848.277,N,00854.713,E,045.5,355.1,131020,000.0,W*76
$GPGGA,114522.070,4848.290,N,00854.712,E,1,12,1.0,0.0,M,0.0,M,,*6E
$GPGSA,A,3,01,02,03,04,05,06,07,08,09,10,11,12,1.0,1.0,1.0*30
$GPRMC,114522.070,A,4848.290,N,00854.712,E,086.6,355.3,131020,000.0,W*73
$GPGGA,114523.070,4848.314,N,00854.710,E,1,12,1.0,0.0,M,0.0,M,,*60
$GPGSA,A,3,01,02,03,04,05,06,07,08,09,10,11,12,1.0,1.0,1.0*30
$GPRMC,114523.070,A,4848.314,N,00854.710,E,047.9,324.2,131020,000.0,W*78
$GPGGA,114524.070,4848.326,N,00854.701,E,1,12,1.0,0.0,M,0.0,M,,*66
$GPGSA,A,3,01,02,03,04,05,06,07,08,09,10,11,12,1.0,1.0,1.0*30
$GPRMC,114524.070,A,4848.326,N,00854.701,E,043.3,333.3,131020,000.0,W*77
$GPGGA,114525.070,4848.337,N,00854.695,E,1,12,1.0,0.0,M,0.0,M,,*6B
$GPGSA,A,3,01,02,03,04,05,06,07,08,09,10,11,12,1.0,1.0,1.0*30
$GPRMC,114525.070,A,4848.337,N,00854.695,E,082.2,327.2,131020,000.0,W*72
$GPGGA,114526.070,4848.358,N,00854.682,E,1,12,1.0,0.0,M,0.0,M,,*67
$GPGSA,A,3,01,02,03,04,05,06,07,08,09,10,11,12,1.0,1.0,1.0*30
$GPRMC,114526.070,A,4848.358,N,00854.682,E,039.0,321.9,131020,000.0,W*71
$GPGGA,114527.070,4848.368,N,00854.674,E,1,12,1.0,0.0,M,0.0,M,,*6C
$GPGSA,A,3,01,02,03,04,05,06,07,08,09,10,11,12,1.0,1.0,1.0*30
$GPRMC,114527.070,A,4848.368,N,00854.674,E,071.5,313.1,131020,000.0,W*7A
$GPGGA,114528.070,4848.384,N,00854.657,E,1,12,1.0,0.0,M,0.0,M,,*60
$GPGSA,A,3,01,02,03,04,05,06,07,08,09,10,11,12,1.0,1.0,1.0*30
$GPRMC,114528.070,A,4848.384,N,00854.657,E,052.1,325.8,131020,000.0,W*7F
$GPGGA,114529.070,4848.397,N,00854.648,E,1,12,1.0,0.0,M,0.0,M,,*6D
$GPGSA,A,3,01,02,03,04,05,06,07,08,09,10,11,12,1.0,1.0,1.0*30
$GPRMC,114529.070,A,4848.397,N,00854.648,E,042.1,319.6,131020,000.0,W*72
$GPGGA,114530.070,4848.407,N,00854.639,E,1,12,1.0,0.0,M,0.0,M,,*6D
$GPGSA,A,3,01,02,03,04,05,06,07,08,09,10,11,12,1.0,1.0,1.0*30
$GPRMC,114530.070,A,4848.407,N,00854.639,E,029.3,312.6,131020,000.0,W*76
$GPGGA,114531.070,4848.414,N,00854.632,E,1,12,1.0,0.0,M,0.0,M,,*65
$GPGSA,A,3,01,02,03,04,05,06,07,08,09,10,11,12,1.0,1.0,1.0*30
$GPRMC,114531.070,A,4848.414,N,00854.632,E,056.5,335.2,131020,000.0,W*71
$GPGGA,114532.070,4848.429,N,00854.625,E,1,12,1.0,0.0,M,0.0,M,,*6E
$GPGSA,A,3,01,02,03,04,05,06,07,08,09,10,11,12,1.0,1.0,1.0*30
$GPRMC,114532.070,A,4848.429,N,00854.625,E,041.5,330.8,131020,000.0,W*73
$GPGGA,114533.070,4848.440,N,00854.619,E,1,12,1.0,0.0,M,0.0,M,,*6F
$GPGSA,A,3,01,02,03,04,05,06,07,08,09,10,11,12,1.0,1.0,1.0*30
$GPRMC,114533.070,A,4848.440,N,00854.619,E,043.4,332.6,131020,000.0,W*7D
$GPGGA,114534.070,4848.451,N,00854.613,E,1,12,1.0,0.0,M,0.0,M,,*62
$GPGSA,A,3,01,02,03,04,05,06,07,08,09,10,11,12,1.0,1.0,1.0*30
$GPRMC,114534.070,A,4848.451,N,00854.613,E,041.4,331.3,131020,000.0,W*74
$GPGGA,114535.070,4848.462,N,00854.607,E,1,12,1.0,0.0,M,0.0,M,,*66
$GPGSA,A,3,01,02,03,04,05,06,07,08,09,10,11,12,1.0,1.0,1.0*30
$GPRMC,114535.070,A,4848.462,N,00854.607,E,043.6,331.6,131020,000.0,W*75
$GPGGA,114536.070,4848.473,N,00854.601,E,1,12,1.0,0.0,M,0.0,M,,*63
$GPGSA,A,3,01,02,03,04,05,06,07,08,09,10,11,12,1.0,1.0,1.0*30
$GPRMC,114536.070,A,4848.473,N,00854.601,E,041.7,329.6,131020,000.0,W*7A
$GPGGA,114537.070,4848.484,N,00854.595,E,1,12,1.0,0.0,M,0.0,M,,*64
$GPGSA,A,3,01,02,03,04,05,06,07,08,09,10,11,12,1.0,1.0,1.0*30
$GPRMC,114537.070,A,4848.484,N,00854.595,E,043.7,331.2,131020,000.0,W*72
$GPGGA,114538.070,4848.496,N,00854.588,E,1,12,1.0,0.0,M,0.0,M,,*64
$GPGSA,A,3,01,02,03,04,05,06,07,08,09,10,11,12,1.0,1.0,1.0*30
$GPRMC,114538.070,A,4848.496,N,00854.588,E,043.9,330.2,131020,000.0,W*7D
$GPGGA,114539.070,4848.507,N,00854.582,E,1,12,1.0,0.0,M,0.0,M,,*66
$GPGSA,A,3,01,02,03,04,05,06,07,08,09,10,11,12,1.0,1.0,1.0*30
$GPRMC,114539.070,A,4848.507,N,00854.582,E,035.6,325.4,131020,000.0,W*73
$GPGGA,114540.070,4848.516,N,00854.575,E,1,12,1.0,0.0,M,0.0,M,,*60
$GPGSA,A,3,01,02,03,04,05,06,07,08,09,10,11,12,1.0,1.0,1.0*30
$GPRMC,114540.070,A,4848.516,N,00854.575,E,053.9,336.8,131020,000.0,W*74
$GPGGA,114541.070,4848.530,N,00854.569,E,1,12,1.0,0.0,M,0.0,M,,*68
$GPGSA,A,3,01,02,03,04,05,06,07,08,09,10,11,12,1.0,1.0,1.0*30
$GPRMC,114541.070,A,4848.530,N,00854.569,E,046.0,331.3,131020,000.0,W*7D
$GPGGA,114542.070,4848.542,N,00854.563,E,1,12,1.0,0.0,M,0.0,M,,*64
$GPGSA,A,3,01,02,03,04,05,06,07,08,09,10,11,12,1.0,1.0,1.0*30
$GPRMC,114542.070,A,4848.542,N,00854.563,E,044.0,329.8,131020,000.0,W*71
$GPGGA,114543.070,4848.554,N,00854.556,E,1,12,1.0,0.0,M,0.0,M,,*64
$GPGSA,A,3,01,02,03,04,05,06,07,08,09,10,11,12,1.0,1.0,1.0*30
$GPRMC,114543.070,A,4848.554,N,00854.556,E,045.9,331.7,131020,000.0,W*7F
$GPGGA,114544.070,4848.566,N,00854.550,E,1,12,1.0,0.0,M,0.0,M,,*64
$GPGSA,A,3,01,02,03,04,05,06,07,08,09,10,11,12,1.0,1.0,1.0*30
$GPRMC,114544.070,A,4848.566,N,00854.550,E,039.9,327.4,131020,000.0,W*70
$GPGGA,114545.070,4848.576,N,00854.543,E,1,12,1.0,0.0,M,0.0,M,,*66
$GPGSA,A,3,01,02,03,04,05,06,07,08,09,10,11,12,1.0,1.0,1.0*30
$GPRMC,114545.070,A,4848.576,N,00854.543,E,049.9,334.4,131020,000.0,W*77
$GPGGA,114546.070,4848.589,N,00854.537,E,1,12,1.0,0.0,M,0.0,M,,*66
$GPGSA,A,3,01,02,03,04,05,06,07,08,09,10,11,12,1.0,1.0,1.0*30
$GPRMC,114546.070,A,4848.589,N,00854.537,E,045.5,333.7,131020,000.0,W*73
$GPGGA,114547.070,4848.601,N,00854.531,E,1,12,1.0,0.0,M,0.0,M,,*62
$GPGSA,A,3,01,02,03,04,05,06,07,08,09,10,11,12,1.0,1.0,1.0*30
$GPRMC,114547.070,A,4848.601,N,00854.531,E,045.1,335.9,131020,000.0,W*7B
$GPGGA,114548.070,4848.613,N,00854.525,E,1,12,1.0,0.0,M,0.0,M,,*6B
$GPGSA,A,3,01,02,03,04,05,06,07,08,09,10,11,12,1.0,1.0,1.0*30
$GPRMC,114548.070,A,4848.613,N,00854.525,E,044.3,341.5,131020,000.0,W*7E
$GPGGA,114549.070,4848.625,N,00854.521,E,1,12,1.0,0.0,M,0.0,M,,*6B
$GPGSA,A,3,01,02,03,04,05,06,07,08,09,10,11,12,1.0,1.0,1.0*30
$GPRMC,114549.070,A,4848.625,N,00854.521,E,046.1,344.6,131020,000.0,W*78
$GPGGA,114550.070,4848.638,N,00854.518,E,1,12,1.0,0.0,M,0.0,M,,*65
$GPGSA,A,3,01,02,03,04,05,06,07,08,09,10,11,12,1.0,1.0,1.0*30
$GPRMC,114550.070,A,4848.638,N,00854.518,E,043.7,347.4,131020,000.0,W*74
$GPGGA,114551.070,4848.650,N,00854.515,E,1,12,1.0,0.0,M,0.0,M,,*67
$GPGSA,A,3,01,02,03,04,05,06,07,08,09,10,11,12,1.0,1.0,1.0*30
$GPRMC,114551.070,A,4848.650,N,00854.515,E,045.7,350.0,131020,000.0,W*72
$GPGGA,114552.070,4848.662,N,00854.513,E,1,12,1.0,0.0,M,0.0,M,,*63
$GPGSA,A,3,01,02,03,04,05,06,07,08,09,10,11,12,1.0,1.0,1.0*30
$GPRMC,114552.070,A,4848.662,N,00854.513,E,043.3,353.7,131020,000.0,W*70
$GPGGA,114553.070,4848.674,N,00854.512,E,1,12,1.0,0.0,M,0.0,M,,*64
$GPGSA,A,3,01,02,03,04,05,06,07,08,09,10,11,12,1.0,1.0,1.0*30
$GPRMC,114553.070,A,4848.674,N,00854.512,E,043.2,357.7,131020,000.0,W*72
$GPGGA,114554.070,4848.686,N,00854.511,E,1,12,1.0,0.0,M,0.0,M,,*6D
$GPGSA,A,3,01,02,03,04,05,06,07,08,09,10,11,12,1.0,1.0,1.0*30
$GPRMC,114554.070,A,4848.686,N,00854.511,E,043.2,001.4,131020,000.0,W*78
$GPGGA,114555.070,4848.698,N,00854.511,E,1,12,1.0,0.0,M,0.0,M,,*63
$GPGSA,A,3,01,02,03,04,05,06,07,08,09,10,11,12,1.0,1.0,1.0*30
$GPRMC,114555.070,A,4848.698,N,00854.511,E,043.3,004.0,131020,000.0,W*76
$GPGGA,114556.070,4848.710,N,00854.512,E,1,12,1.0,0.0,M,0.0,M,,*62
$GPGSA,A,3,01,02,03,04,05,06,07,08,09,10,11,12,1.0,1.0,1.0*30
$GPRMC,114556.070,A,4848.710,N,00854.512,E,041.1,005.4,131020,000.0,W*72
$GPGGA,114557.070,4848.722,N,00854.513,E,1,12,1.0,0.0,M,0.0,M,,*63
$GPGSA,A,3,01,02,03,04,05,06,07,08,09,10,11,12,1.0,1.0,1.0*30
$GPRMC,114557.070,A,4848.722,N,00854.513,E,041.1,005.4,131020,000.0,W*73
$GPGGA,114558.070,4848.733,N,00854.514,E,1,12,1.0,0.0,M,0.0,M,,*6B
$GPGSA,A,3,01,02,03,04,05,06,07,08,09,10,11,12,1.0,1.0,1.0*30
$GPRMC,114558.070,A,4848.733,N,00854.514,E,039.0,005.4,131020,000.0,W*75
$GPGGA,114559.070,4848.744,N,00854.515,E,1,12,1.0,0.0,M,0.0,M,,*6B
$GPGSA,A,3,01,02,03,04,05,06,07,08,09,10,11,12,1.0,1.0,1.0*30
$GPRMC,114559.070,A,4848.744,N,00854.515,E,036.9,008.7,131020,000.0,W*7D
$GPGGA,114600.070,4848.754,N,00854.517,E,1,12,1.0,0.0,M,0.0,M,,*67
$GPGSA,A,3,01,02,03,04,05,06,07,08,09,10,11,12,1.0,1.0,1.0*30
$GPRMC,114600.070,A,4848.754,N,00854.517,E,037.0,010.6,131020,000.0,W*71
$GPGGA,114601.070,4848.764,N,00854.519,E,1,12,1.0,0.0,M,0.0,M,,*6B
$GPGSA,A,3,01,02,03,04,05,06,07,08,09,10,11,12,1.0,1.0,1.0*30
$GPRMC,114601.070,A,4848.764,N,00854.519,E,035.6,019.9,131020,000.0,W*7F
$GPGGA,114602.070,4848.774,N,00854.522,E,1,12,1.0,0.0,M,0.0,M,,*61
$GPGSA,A,3,01,02,03,04,05,06,07,08,09,10,11,12,1.0,1.0,1.0*30
$GPRMC,114602.070,A,4848.774,N,00854.522,E,066.4,018.2,131020,000.0,W*7B
$GPGGA,114603.070,4848.792,N,00854.528,E,1,12,1.0,0.0,M,0.0,M,,*62
$GPGSA,A,3,01,02,03,04,05,06,07,08,09,10,11,12,1.0,1.0,1.0*30
$GPRMC,114603.070,A,4848.792,N,00854.528,E,044.0,061.3,131020,000.0,W*73
$GPGGA,114604.070,4848.800,N,00854.543,E,1,12,1.0,0.0,M,0.0,M,,*6C
$GPGSA,A,3,01,02,03,04,05,06,07,08,09,10,11,12,1.0,1.0,1.0*30
$GPRMC,114604.070,A,4848.800,N,00854.543,E,033.0,049.9,131020,000.0,W*7D
$GPGGA,114605.070,4848.807,N,00854.551,E,1,12,1.0,0.0,M,0.0,M,,*69
$GPGSA,A,3,01,02,03,04,05,06,07,08,09,10,11,12,1.0,1.0,1.0*30
$GPRMC,114605.070,A,4848.807,N,00854.551,E,032.9,049.7,131020,000.0,W*7E
$GPGGA,114606.070,4848.814,N,00854.560,E,1,12,1.0,0.0,M,0.0,M,,*6A
$GPGSA,A,3,01,02,03,04,05,06,07,08,09,10,11,12,1.0,1.0,1.0*30
$GPRMC,114606.070,A,4848.814,N,00854.560,E,030.5,050.5,131020,000.0,W*79
$GPGGA,114607.070,4848.821,N,00854.568,E,1,12,1.0,0.0,M,0.0,M,,*65
$GPGSA,A,3,01,02,03,04,05,06,07,08,09,10,11,12,1.0,1.0,1.0*30
$GPRMC,114607.070,A,4848.821,N,00854.568,E,031.2,045.4,131020,000.0,W*75
$GPGGA,114608.070,4848.828,N,00854.575,E,1,12,1.0,0.0,M,0.0,M,,*6F
$GPGSA,A,3,01,02,03,04,05,06,07,08,09,10,11,12,1.0,1.0,1.0*30
$GPRMC,114608.070,A,4848.828,N,00854.575,E,028.9,046.4,131020,000.0,W*7F
$GPGGA,114609.070,4848.835,N,00854.582,E,1,12,1.0,0.0,M,0.0,M,,*6A
$GPGSA,A,3,01,02,03,04,05,06,07,08,09,10,11,12,1.0,1.0,1.0*30
$GPRMC,114609.070,A,4848.835,N,00854.582,E,026.3,046.3,131020,000.0,W*79
$GPGGA,114610.070,4848.841,N,00854.588,E,1,12,1.0,0.0,M,0.0,M,,*6B
$GPGSA,A,3,01,02,03,04,05,06,07,08,09,10,11,12,1.0,1.0,1.0*30
$GPRMC,114610.070,A,4848.841,N,00854.588,E,023.5,045.8,131020,000.0,W*73
$GPGGA,114611.070,4848.846,N,00854.594,E,1,12,1.0,0.0,M,0.0,M,,*60
$GPGSA,A,3,01,02,03,04,05,06,07,08,09,10,11,12,1.0,1.0,1.0*30
$GPRMC,114611.070,A,4848.846,N,00854.594,E,021.0,046.3,131020,000.0,W*77
$GPGGA,114612.070,4848.851,N,00854.599,E,1,12,1.0,0.0,M,0.0,M,,*68
$GPGSA,A,3,01,02,03,04,05,06,07,08,09,10,11,12,1.0,1.0,1.0*30
$GPRMC,114612.070,A,4848.851,N,00854.599,E,019.1,049.4,131020,000.0,W*7D
$GPGGA,114613.070,4848.855,N,00854.604,E,1,12,1.0,0.0,M,0.0,M,,*6A
$GPGSA,A,3,01,02,03,04,05,06,07,08,09,10,11,12,1.0,1.0,1.0*30
$GPRMC,114613.070,A,4848.855,N,00854.604,E,016.8,068.3,131020,000.0,W*7D
$GPGGA,114614.070,4848.857,N,00854.610,E,1,12,1.0,0.0,M,0.0,M,,*6A
$GPGSA,A,3,01,02,03,04,05,06,07,08,09,10,11,12,1.0,1.0,1.0*30
$GPRMC,114614.070,A,4848.857,N,00854.610,E,019.7,077.1,131020,000.0,W*71
$GPGGA,114615.070,4848.859,N,00854.618,E,1,12,1.0,0.0,M,0.0,M,,*6D
$GPGSA,A,3,01,02,03,04,05,06,07,08,09,10,11,12,1.0,1.0,1.0*30
$GPRMC,114615.070,A,4848.859,N,00854.618,E,021.4,097.8,131020,000.0,W*79
$GPGGA,114616.070,4848.858,N,00854.627,E,1,12,1.0,0.0,M,0.0,M,,*63
$GPGSA,A,3,01,02,03,04,05,06,07,08,09,10,11,12,1.0,1.0,1.0*30
$GPRMC,114616.070,A,4848.858,N,00854.627,E,023.1,090.0,131020,000.0,W*7F
$GPGGA,114617.070,4848.858,N,00854.636,E,1,12,1.0,0.0,M,0.0,M,,*62
$GPGSA,A,3,01,02,03,04,05,06,07,08,09,10,11,12,1.0,1.0,1.0*30
$GPRMC,114617.070,A,4848.858,N,00854.636,E,022.6,097.3,131020,000.0,W*7C
$GPGGA,114618.070,4848.857,N,00854.646,E,1,12,1.0,0.0,M,0.0,M,,*65
$GPGSA,A,3,01,02,03,04,05,06,07,08,09,10,11,12,1.0,1.0,1.0*30
$GPRMC,114618.070,A,4848.857,N,00854.646,E,023.3,097.1,131020,000.0,W*7D
$GPGGA,114619.070,4848.856,N,00854.655,E,1,12,1.0,0.0,M,0.0,M,,*67
$GPGSA,A,3,01,02,03,04,05,06,07,08,09,10,11,12,1.0,1.0,1.0*30
$GPRMC,114619.070,A,4848.856,N,00854.655,E,024.1,100.5,131020,000.0,W*71
$GPGGA,114620.070,4848.854,N,00854.665,E,1,12,1.0,0.0,M,0.0,M,,*6C
$GPGSA,A,3,01,02,03,04,05,06,07,08,09,10,11,12,1.0,1.0,1.0*30
$GPRMC,114620.070,A,4848.854,N,00854.665,E,024.4,100.3,131020,000.0,W*79
$GPGGA,114621.070,4848.852,N,00854.675,E,1,12,1.0,0.0,M,0.0,M,,*6A
$GPGSA,A,3,01,02,03,04,05,06,07,08,09,10,11,12,1.0,1.0,1.0*30
$GPRMC,114621.070,A,4848.852,N,00854.675,E,026.0,103.1,131020,000.0,W*78
$GPGGA,114622.070,4848.850,N,00854.685,E,1,12,1.0,0.0,M,0.0,M,,*64
$GPGSA,A,3,01,02,03,04,05,06,07,08,09,10,11,12,1.0,1.0,1.0*30
$GPRMC,114622.070,A,4848.850,N,00854.685,E,026.2,099.6,131020,000.0,W*71
$GPGGA,114623.070,4848.848,N,00854.696,E,1,12,1.0,0.0,M,0.0,M,,*6E
$GPGSA,A,3,01,02,03,04,05,06,07,08,09,10,11,12,1.0,1.0,1.0*30
$GPRMC,114623.070,A,4848.848,N,00854.696,E,026.8,099.3,131020,000.0,W*74
$GPGGA,114624.070,4848.846,N,00854.707,E,1,12,1.0,0.0,M,0.0,M,,*6E
$GPGSA,A,3,01,02,03,04,05,06,07,08,09,10,11,12,1.0,1.0,1.0*30
$GPRMC,114624.070,A,4848.846,N,00854.707,E,028.0,102.1,131020,000.0,W*73
$GPGGA,114625.070,4848.844,N,00854.718,E,1,12,1.0,0.0,M,0.0,M,,*63
$GPGSA,A,3,01,02,03,04,05,06,07,08,09,10,11,12,1.0,1.0,1.0*30
$GPRMC,114625.070,A,4848.844,N,00854.718,E,027.9,099.0,131020,000.0,W*7A
$GPGGA,114626.070,4848.842,N,00854.730,E,1,12,1.0,0.0,M,0.0,M,,*6C
$GPGSA,A,3,01,02,03,04,05,06,07,08,09,10,11,12,1.0,1.0,1.0*30
$GPRMC,114626.070,A,4848.842,N,00854.730,E,027.0,102.6,131020,000.0,W*79
$GPGGA,114627.070,4848.839,N,00854.740,E,1,12,1.0,0.0,M,0.0,M,,*66
$GPGSA,A,3,01,02,03,04,05,06,07,08,09,10,11,12,1.0,1.0,1.0*30
$GPRMC,114627.070,A,4848.839,N,00854.740,E,024.6,100.2,131020,000.0,W*70
$GPGGA,114628.070,4848.838,N,00854.750,E,1,12,1.0,0.0,M,0.0,M,,*69
$GPGSA,A,3,01,02,03,04,05,06,07,08,09,10,11,12,1.0,1.0,1.0*30
$GPRMC,114628.070,A,4848.838,N,00854.750,E,022.9,097.2,131020,000.0,W*79
$GPGGA,114629.070,4848.836,N,00854.760,E,1,12,1.0,0.0,M,0.0,M,,*65
$GPGSA,A,3,01,02,03,04,05,06,07,08,09,10,11,12,1.0,1.0,1.0*30
$GPRMC,114629.070,A,4848.836,N,00854.760,E,021.8,101.7,131020,000.0,W*7C
$GPGGA,114630.070,4848.835,N,00854.769,E,1,12,1.0,0.0,M,0.0,M,,*67
$GPGSA,A,3,01,02,03,04,05,06,07,08,09,10,11,12,1.0,1.0,1.0*30
$GPRMC,114630.070,A,4848.835,N,00854.769,E,019.8,098.4,131020,000.0,W*77
$GPGGA,114631.070,4848.833,N,00854.777,E,1,12,1.0,0.0,M,0.0,M,,*6F
$GPGSA,A,3,01,02,03,04,05,06,07,08,09,10,11,12,1.0,1.0,1.0*30
$GPRMC,114631.070,A,4848.833,N,00854.777,E,018.9,103.5,131020,000.0,W*7D
$GPGGA,114632.070,4848.832,N,00854.784,E,1,12,1.0,0.0,M,0.0,M,,*61
$GPGSA,A,3,01,02,03,04,05,06,07,08,09,10,11,12,1.0,1.0,1.0*30
$GPRMC,114632.070,A,4848.832,N,00854.784,E,017.2,099.7,131020,000.0,W*77
$GPGGA,114633.070,4848.830,N,00854.791,E,1,12,1.0,0.0,M,0.0,M,,*66
$GPGSA,A,3,01,02,03,04,05,06,07,08,09,10,11,12,1.0,1.0,1.0*30
$GPRMC,114633.070,A,4848.830,N,00854.791,E,016.0,100.5,131020,000.0,W*70
$GPGGA,114634.070,4848.829,N,00854.798,E,1,12,1.0,0.0,M,0.0,M,,*60
$GPGSA,A,3,01,02,03,04,05,06,07,08,09,10,11,12,1.0,1.0,1.0*30
$GPRMC,114634.070,A,4848.829,N,00854.798,E,014.6,101.6,131020,000.0,W*70
$GPGGA,114635.070,4848.828,N,00854.804,E,1,12,1.0,0.0,M,0.0,M,,*6A
$GPGSA,A,3,01,02,03,04,05,06,07,08,09,10,11,12,1.0,1.0,1.0*30
$GPRMC,114635.070,A,4848.828,N,00854.804,E,025.2,137.8,131020,000.0,W*77
$GPGGA,114636.070,4848.822,N,00854.809,E,1,12,1.0,0.0,M,0.0,M,,*6E
$GPGSA,A,3,01,02,03,04,05,06,07,08,09,10,11,12,1.0,1.0,1.0*30
$GPRMC,114636.070,A,4848.822,N,00854.809,E,017.0,052.0,131020,000.0,W*7A
$GPGGA,114637.070,4848.826,N,00854.814,E,1,12,1.0,0.0,M,0.0,M,,*67
$GPGSA,A,3,01,02,03,04,05,06,07,08,09,10,11,12,1.0,1.0,1.0*30
$GPRMC,114637.070,A,4848.826,N,00854.814,E,013.9,090.0,131020,000.0,W*70
$GPGGA,114638.070,4848.826,N,00854.820,E,1,12,1.0,0.0,M,0.0,M,,*6F
$GPGSA,A,3,01,02,03,04,05,06,07,08,09,10,11,12,1.0,1.0,1.0*30
$GPRMC,114638.070,A,4848.826,N,00854.820,E,013.6,155.1,131020,000.0,W*7E
$GPGGA,114639.070,4848.822,N,00854.821,E,1,12,1.0,0.0,M,0.0,M,,*6B
$GPGSA,A,3,01,02,03,04,05,06,07,08,09,10,11,12,1.0,1.0,1.0*30
$GPRMC,114639.070,A,4848.822,N,00854.821,E,002.1,090.0,131020,000.0,W*74
$GPGGA,114640.070,4848.822,N,00854.822,E,1,12,1.0,0.0,M,0.0,M,,*66
$GPGSA,A,3,01,02,03,04,05,06,07,08,09,10,11,12,1.0,1.0,1.0*30
$GPRMC,114640.070,A,4848.822,N,00854.822,E,002.1,000.0,131020,000.0,W*70
$GPGGA,114641.070,4848.822,N,00854.822,E,1,12,1.0,0.0,M,0.0,M,,*67
$GPGSA,A,3,01,02,03,04,05,06,07,08,09,10,11,12,1.0,1.0,1.0*30
$GPRMC,114641.070,A,4848.822,N,00854.822,E,000.0,000.0,131020,000.0,W*72
$GPGGA,114642.070,4848.822,N,00854.822,E,1,12,1.0,0.0,M,0.0,M,,*64
$GPGSA,A,3,01,02,03,04,05,06,07,08,09,10,11,12,1.0,1.0,1.0*30
$GPRMC,114642.070,A,4848.822,N,00854.822,E,000.0,000.0,131020,000.0,W*71
$GPGGA,114643.070,4848.822,N,00854.822,E,1,12,1.0,0.0,M,0.0,M,,*65
$GPGSA,A,3,01,02,03,04,05,06,07,08,09,10,11,12,1.0,1.0,1.0*30
$GPRMC,114643.070,A,4848.822,N,00854.822,E,000.0,000.0,131020,000.0,W*70
$GPGGA,114644.070,4848.822,N,00854.822,E,1,12,1.0,0.0,M,0.0,M,,*62
$GPGSA,A,3,01,02,03,04,05,06,07,08,09,10,11,12,1.0,1.0,1.0*30
$GPRMC,114644.070,A,4848.822,N,00854.822,E,010.8,000.0,131020,000.0,W*7E
$GPGGA,114645.070,4848.825,N,00854.822,E,1,12,1.0,0.0,M,0.0,M,,*64
$GPGSA,A,3,01,02,03,04,05,06,07,08,09,10,11,12,1.0,1.0,1.0*30
$GPRMC,114645.070,A,4848.825,N,00854.822,E,002.8,129.9,131020,000.0,W*78
$GPGGA,114646.070,4848.824,N,00854.823,E,1,12,1.0,0.0,M,0.0,M,,*67
$GPGSA,A,3,01,02,03,04,05,06,07,08,09,10,11,12,1.0,1.0,1.0*30
$GPRMC,114646.070,A,4848.824,N,00854.823,E,006.6,102.9,131020,000.0,W*78
$GPGGA,114647.070,4848.824,N,00854.826,E,1,12,1.0,0.0,M,0.0,M,,*63
$GPGSA,A,3,01,02,03,04,05,06,07,08,09,10,11,12,1.0,1.0,1.0*30
$GPRMC,114647.070,A,4848.824,N,00854.826,E,010.9,106.0,131020,000.0,W*79
$GPGGA,114648.070,4848.823,N,00854.830,E,1,12,1.0,0.0,M,0.0,M,,*6C
$GPGSA,A,3,01,02,03,04,05,06,07,08,09,10,11,12,1.0,1.0,1.0*30
$GPRMC,114648.070,A,4848.823,N,00854.830,E,013.0,096.4,131020,000.0,W*70
$GPGGA,114649.070,4848.822,N,00854.835,E,1,12,1.0,0.0,M,0.0,M,,*69
$GPGSA,A,3,01,02,03,04,05,06,07,08,09,10,11,12,1.0,1.0,1.0*30
$GPRMC,114649.070,A,4848.822,N,00854.835,E,013.9,102.2,131020,000.0,W*76
$GPGGA,114650.070,4848.821,N,00854.841,E,1,12,1.0,0.0,M,0.0,M,,*61
$GPGSA,A,3,01,02,03,04,05,06,07,08,09,10,11,12,1.0,1.0,1.0*30
$GPRMC,114650.070,A,4848.821,N,00854.841,E,014.5,101.7,131020,000.0,W*73
$GPGGA,114651.070,4848.820,N,00854.847,E,1,12,1.0,0.0,M,0.0,M,,*67
$GPGSA,A,3,01,02,03,04,05,06,07,08,09,10,11,12,1.0,1.0,1.0*30
$GPRMC,114651.070,A,4848.820,N,00854.847,E,015.1,101.1,131020,000.0,W*76
$GPGGA,114652.070,4848.818,N,00854.853,E,1,12,1.0,0.0,M,0.0,M,,*6A
$GPGSA,A,3,01,02,03,04,05,06,07,08,09,10,11,12,1.0,1.0,1.0*30
$GPRMC,114652.070,A,4848.818,N,00854.853,E,016.9,099.9,131020,000.0,W*78
$GPGGA,114653.070,4848.817,N,00854.860,E,1,12,1.0,0.0,M,0.0,M,,*64
$GPGSA,A,3,01,02,03,04,05,06,07,08,09,10,11,12,1.0,1.0,1.0*30
$GPRMC,114653.070,A,4848.817,N,00854.860,E,019.3,103.2,131020,000.0,W*7A
$GPGGA,114654.070,4848.815,N,00854.867,E,1,12,1.0,0.0,M,0.0,M,,*66
$GPGSA,A,3,01,02,03,04,05,06,07,08,09,10,11,12,1.0,1.0,1.0*30
$GPRMC,114654.070,A,4848.815,N,00854.867,E,027.9,122.6,131020,000.0,W*78
$GPGGA,114655.070,4848.810,N,00854.876,E,1,12,1.0,0.0,M,0.0,M,,*62
$GPGSA,A,3,01,02,03,04,05,06,07,08,09,10,11,12,1.0,1.0,1.0*30
$GPRMC,114655.070,A,4848.810,N,00854.876,E,022.0,074.2,131020,000.0,W*76
$GPGGA,114656.070,4848.812,N,00854.884,E,1,12,1.0,0.0,M,0.0,M,,*6E
$GPGSA,A,3,01,02,03,04,05,06,07,08,09,10,11,12,1.0,1.0,1.0*30
$GPRMC,114656.070,A,4848.812,N,00854.884,E,020.8,098.0,131020,000.0,W*70
$GPGGA,114657.070,4848.811,N,00854.893,E,1,12,1.0,0.0,M,0.0,M,,*6A
$GPGSA,A,3,01,02,03,04,05,06,07,08,09,10,11,12,1.0,1.0,1.0*30
$GPRMC,114657.070,A,4848.811,N,00854.893,E,022.4,101.3,131020,000.0,W*78
$GPGGA,114658.070,4848.809,N,00854.902,E,1,12,1.0,0.0,M,0.0,M,,*65
$GPGSA,A,3,01,02,03,04,05,06,07,08,09,10,11,12,1.0,1.0,1.0*30
$GPRMC,114658.070,A,4848.809,N,00854.902,E,023.2,097.2,131020,000.0,W*7F
$GPGGA,114659.070,4848.808,N,00854.912,E,1,12,1.0,0.0,M,0.0,M,,*64
$GPGSA,A,3,01,02,03,04,05,06,07,08,09,10,11,12,1.0,1.0,1.0*30
$GPRMC,114659.070,A,4848.808,N,00854.912,E,025.1,100.0,131020,000.0,W*76
$GPGGA,114700.070,4848.806,N,00854.922,E,1,12,1.0,0.0,M,0.0,M,,*64
$GPGSA,A,3,01,02,03,04,05,06,07,08,09,10,11,12,1.0,1.0,1.0*30
$GPRMC,114700.070,A,4848.806,N,00854.922,E,026.5,102.9,131020,000.0,W*7A
$GPGGA,114701.070,4848.804,N,00854.932,E,1,12,1.0,0.0,M,0.0,M,,*66
$GPGSA,A,3,01,02,03,04,05,06,07,08,09,10,11,12,1.0,1.0,1.0*30
$GPRMC,114701.070,A,4848.804,N,00854.932,E,027.7,102.2,131020,000.0,W*70
$GPGGA,114702.070,4848.802,N,00854.943,E,1,12,1.0,0.0,M,0.0,M,,*65
$GPGSA,A,3,01,02,03,04,05,06,07,08,09,10,11,12,1.0,1.0,1.0*30
$GPRMC,114702.070,A,4848.802,N,00854.943,E,029.3,104.7,131020,000.0,W*7A
$GPGGA,114703.070,4848.799,N,00854.955,E,1,12,1.0,0.0,M,0.0,M,,*6E
$GPGSA,A,3,01,02,03,04,05,06,07,08,09,10,11,12,1.0,1.0,1.0*30
$GPRMC,114703.070,A,4848.799,N,00854.955,E,029.5,104.6,131020,000.0,W*76
$GPGGA,114704.070,4848.796,N,00854.966,E,1,12,1.0,0.0,M,0.0,M,,*66
$GPGSA,A,3,01,02,03,04,05,06,07,08,09,10,11,12,1.0,1.0,1.0*30
$GPRMC,114704.070,A,4848.796,N,00854.966,E,030.6,107.2,131020,000.0,W*72
$GPGGA,114705.070,4848.792,N,00854.978,E,1,12,1.0,0.0,M,0.0,M,,*6C
$GPGSA,A,3,01,02,03,04,05,06,07,08,09,10,11,12,1.0,1.0,1.0*30
$GPRMC,114705.070,A,4848.792,N,00854.978,E,030.9,110.4,131020,000.0,W*77
$GPGGA,114706.070,4848.788,N,00854.990,E,1,12,1.0,0.0,M,0.0,M,,*62
$GPGSA,A,3,01,02,03,04,05,06,07,08,09,10,11,12,1.0,1.0,1.0*30
$GPRMC,114706.070,A,4848.788,N,00854.990,E,032.6,116.1,131020,000.0,W*77
$GPGGA,114707.070,4848.782,N,00855.001,E,1,12,1.0,0.0,M,0.0,M,,*69
$GPGSA,A,3,01,02,03,04,05,06,07,08,09,10,11,12,1.0,1.0,1.0*30
$GPRMC,114707.070,A,4848.782,N,00855.001,E,032.3,116.5,131020,000.0,W*7D
$GPGGA,114708.070,4848.777,N,00855.011,E,1,12,1.0,0.0,M,0.0,M,,*6D
$GPGSA,A,3,01,02,03,04,05,06,07,08,09,10,11,12,1.0,1.0,1.0*30
$GPRMC,114708.070,A,4848.777,N,00855.011,E,031.8,117.0,131020,000.0,W*75
$GPGGA,114709.070,4848.772,N,00855.022,E,1,12,1.0,0.0,M,0.0,M,,*69
$GPGSA,A,3,01,02,03,04,05,06,07,08,09,10,11,12,1.0,1.0,1.0*30
$GPRMC,114709.070,A,4848.772,N,00855.022,E,193.5,156.4,131020,000.0,W*74
$GPGGA,114710.070,4848.720,N,00855.045,E,1,12,1.0,0.0,M,0.0,M,,*67
$GPGSA,A,3,01,02,03,04,05,06,07,08,09,10,11,12,1.0,1.0,1.0*30
$GPRMC,114710.070,A,4848.720,N,00855.045,E,134.9,018.1,131020,000.0,W*75
$GPGGA,114711.070,4848.757,N,00855.057,E,1,12,1.0,0.0,M,0.0,M,,*65
$GPGSA,A,3,01,02,03,04,05,06,07,08,09,10,11,12,1.0,1.0,1.0*30
$GPRMC,114711.070,A,4848.757,N,00855.057,E,033.2,108.7,131020,000.0,W*7C
$GPGGA,114712.070,4848.752,N,00855.069,E,1,12,1.0,0.0,M,0.0,M,,*6E
$GPGSA,A,3,01,02,03,04,05,06,07,08,09,10,11,12,1.0,1.0,1.0*30
$GPRMC,114712.070,A,4848.752,N,00855.069,E,033.9,105.3,131020,000.0,W*75
$GPGGA,114713.070,4848.749,N,00855.082,E,1,12,1.0,0.0,M,0.0,M,,*60
$GPGSA,A,3,01,02,03,04,05,06,07,08,09,10,11,12,1.0,1.0,1.0*30
$GPRMC,114713.070,A,4848.749,N,00855.082,E,033.3,100.1,131020,000.0,W*76
$GPGGA,114714.070,4848.746,N,00855.096,E,1,12,1.0,0.0,M,0.0,M,,*6D
$GPGSA,A,3,01,02,03,04,05,06,07,08,09,10,11,12,1.0,1.0,1.0*30
$GPRMC,114714.070,A,4848.746,N,00855.096,E,033.4,097.5,131020,000.0,W*77
$GPGGA,114715.070,4848.745,N,00855.110,E,1,12,1.0,0.0,M,0.0,M,,*60
$GPGSA,A,3,01,02,03,04,05,06,07,08,09,10,11,12,1.0,1.0,1.0*30
$GPRMC,114715.070,A,4848.745,N,00855.110,E,033.8,092.4,131020,000.0,W*72
$GPGGA,114716.070,4848.744,N,00855.124,E,1,12,1.0,0.0,M,0.0,M,,*65
$GPGSA,A,3,01,02,03,04,05,06,07,08,09,10,11,12,1.0,1.0,1.0*30
$GPRMC,114716.070,A,4848.744,N,00855.124,E,034.0,090.0,131020,000.0,W*7E
$GPGGA,114717.070,4848.744,N,00855.138,E,1,12,1.0,0.0,M,0.0,M,,*69
$GPGSA,A,3,01,02,03,04,05,06,07,08,09,10,11,12,1.0,1.0,1.0*30
$GPRMC,114717.070,A,4848.744,N,00855.138,E,033.8,087.6,131020,000.0,W*7D
$GPGGA,114718.070,4848.745,N,00855.152,E,1,12,1.0,0.0,M,0.0,M,,*6B
$GPGSA,A,3,01,02,03,04,05,06,07,08,09,10,11,12,1.0,1.0,1.0*30
$GPRMC,114718.070,A,4848.745,N,00855.152,E,032.8,087.5,131020,000.0,W*7D
$GPGGA,114719.070,4848.745,N,00855.166,E,1,12,1.0,0.0,M,0.0,M,,*6D
$GPGSA,A,3,01,02,03,04,05,06,07,08,09,10,11,12,1.0,1.0,1.0*30
$GPRMC,114719.070,A,4848.745,N,00855.166,E,032.7,095.0,131020,000.0,W*72
$GPGGA,114720.070,4848.744,N,00855.180,E,1,12,1.0,0.0,M,0.0,M,,*6E
$GPGSA,A,3,01,02,03,04,05,06,07,08,09,10,11,12,1.0,1.0,1.0*30
$GPRMC,114720.070,A,4848.744,N,00855.180,E,035.9,072.9,131020,000.0,W*78
$GPGGA,114721.070,4848.748,N,00855.194,E,1,12,1.0,0.0,M,0.0,M,,*66
$GPGSA,A,3,01,02,03,04,05,06,07,08,09,10,11,12,1.0,1.0,1.0*30
$GPRMC,114721.070,A,4848.748,N,00855.194,E,032.1,087.4,131020,000.0,W*78
$GPGGA,114722.070,4848.749,N,00855.207,E,1,12,1.0,0.0,M,0.0,M,,*6D
$GPGSA,A,3,01,02,03,04,05,06,07,08,09,10,11,12,1.0,1.0,1.0*30
$GPRMC,114722.070,A,4848.749,N,00855.207,E,064.1,092.6,131020,000.0,W*76
$GPGGA,114723.070,4848.748,N,00855.234,E,1,12,1.0,0.0,M,0.0,M,,*6D
$GPGSA,A,3,01,02,03,04,05,06,07,08,09,10,11,12,1.0,1.0,1.0*30
$GPRMC,114723.070,A,4848.748,N,00855.234,E,032.3,097.7,131020,000.0,W*73
$GPGGA,114724.070,4848.746,N,00855.247,E,1,12,1.0,0.0,M,0.0,M,,*60
$GPGSA,A,3,01,02,03,04,05,06,07,08,09,10,11,12,1.0,1.0,1.0*30
$GPRMC,114724.070,A,4848.746,N,00855.247,E,032.2,100.4,131020,000.0,W*73
$GPGGA,114725.070,4848.743,N,00855.261,E,1,12,1.0,0.0,M,0.0,M,,*60
$GPGSA,A,3,01,02,03,04,05,06,07,08,09,10,11,12,1.0,1.0,1.0*30
$GPRMC,114725.070,A,4848.743,N,00855.261,E,031.5,100.7,131020,000.0,W*74
$GPGGA,114726.070,4848.741,N,00855.273,E,1,12,1.0,0.0,M,0.0,M,,*62
$GPGSA,A,3,01,02,03,04,05,06,07,08,09,10,11,12,1.0,1.0,1.0*30
$GPRMC,114726.070,A,4848.741,N,00855.273,E,031.4,103.6,131020,000.0,W*75
$GPGGA,114727.070,4848.738,N,00855.286,E,1,12,1.0,0.0,M,0.0,M,,*67
$GPGSA,A,3,01,02,03,04,05,06,07,08,09,10,11,12,1.0,1.0,1.0*30
$GPRMC,114727.070,A,4848.738,N,00855.286,E,030.0,098.3,131020,000.0,W*73
$GPGGA,114728.070,4848.736,N,00855.298,E,1,12,1.0,0.0,M,0.0,M,,*69
$GPGSA,A,3,01,02,03,04,05,06,07,08,09,10,11,12,1.0,1.0,1.0*30
$GPRMC,114728.070,A,4848.736,N,00855.298,E,030.2,098.3,131020,000.0,W*7F
$GPGGA,114729.070,4848.734,N,00855.311,E,1,12,1.0,0.0,M,0.0,M,,*6A
$GPGSA,A,3,01,02,03,04,05,06,07,08,09,10,11,12,1.0,1.0,1.0*30
$GPRMC,114729.070,A,4848.734,N,00855.311,E,030.7,101.0,131020,000.0,W*7B
$GPGGA,114730.070,4848.732,N,00855.323,E,1,12,1.0,0.0,M,0.0,M,,*65
$GPGSA,A,3,01,02,03,04,05,06,07,08,09,10,11,12,1.0,1.0,1.0*30
$GPRMC,114730.070,A,4848.732,N,00855.323,E,028.6,098.7,131020,000.0,W*7A
$GPGGA,114731.070,4848.730,N,00855.335,E,1,12,1.0,0.0,M,0.0,M,,*61
$GPGSA,A,3,01,02,03,04,05,06,07,08,09,10,11,12,1.0,1.0,1.0*30
$GPRMC,114731.070,A,4848.730,N,00855.335,E,026.1,096.3,131020,000.0,W*7D
$GPGGA,114732.070,4848.729,N,00855.346,E,1,12,1.0,0.0,M,0.0,M,,*6E
$GPGSA,A,3,01,02,03,04,05,06,07,08,09,10,11,12,1.0,1.0,1.0*30
$GPRMC,114732.070,A,4848.729,N,00855.346,E,023.4,100.8,131020,000.0,W*77
$GPGGA,114733.070,4848.727,N,00855.355,E,1,12,1.0,0.0,M,0.0,M,,*63
$GPGSA,A,3,01,02,03,04,05,06,07,08,09,10,11,12,1.0,1.0,1.0*30
$GPRMC,114733.070,A,4848.727,N,00855.355,E,020.0,098.3,131020,000.0,W*76
$GPGGA,114734.070,4848.726,N,00855.363,E,1,12,1.0,0.0,M,0.0,M,,*60
$GPGSA,A,3,01,02,03,04,05,06,07,08,09,10,11,12,1.0,1.0,1.0*30
$GPRMC,114734.070,A,4848.726,N,00855.363,E,016.5,095.0,131020,000.0,W*7B
$GPGGA,114735.070,4848.725,N,00855.370,E,1,12,1.0,0.0,M,0.0,M,,*60
$GPGSA,A,3,01,02,03,04,05,06,07,08,09,10,11,12,1.0,1.0,1.0*30
$GPRMC,114735.070,A,4848.725,N,00855.370,E,014.6,101.6,131020,000.0,W*70
$GPGGA,114736.070,4848.724,N,00855.376,E,1,12,1.0,0.0,M,0.0,M,,*64
$GPGSA,A,3,01,02,03,04,05,06,07,08,09,10,11,12,1.0,1.0,1.0*30
$GPRMC,114736.070,A,4848.724,N,00855.376,E,011.6,097.2,131020,000.0,W*7B
$GPGGA,114737.070,4848.724,N,00855.381,E,1,12,1.0,0.0,M,0.0,M,,*6D
$GPGSA,A,3,01,02,03,04,05,06,07,08,09,10,11,12,1.0,1.0,1.0*30
$GPRMC,114737.070,A,4848.724,N,00855.381,E,008.5,099.8,131020,000.0,W*7D
$GPGGA,114738.070,4848.723,N,00855.384,E,1,12,1.0,0.0,M,0.0,M,,*60
$GPGSA,A,3,01,02,03,04,05,06,07,08,09,10,11,12,1.0,1.0,1.0*30
$GPRMC,114738.070,A,4848.723,N,00855.384,E,006.4,103.4,131020,000.0,W*71
$GPGGA,114739.070,4848.722,N,00855.387,E,1,12,1.0,0.0,M,0.0,M,,*63
$GPGSA,A,3,01,02,03,04,05,06,07,08,09,10,11,12,1.0,1.0,1.0*30
$GPRMC,114739.070,A,4848.722,N,00855.387,E,004.0,090.0,131020,000.0,W*7B
$GPGGA,114740.070,4848.722,N,00855.389,E,1,12,1.0,0.0,M,0.0,M,,*63
$GPGSA,A,3,01,02,03,04,05,06,07,08,09,10,11,12,1.0,1.0,1.0*30
$GPRMC,114740.070,A,4848.722,N,00855.389,E,002.0,090.0,131020,000.0,W*7D
$GPGGA,114741.070,4848.722,N,00855.389,E,1,12,1.0,0.0,M,0.0,M,,*62
$GPGSA,A,3,01,02,03,04,05,06,07,08,09,10,11,12,1.0,1.0,1.0*30
$GPRMC,114741.070,A,4848.722,N,00855.389,E,002.0,000.0,131020,000.0,W*75
$GPGGA,114742.070,4848.722,N,00855.389,E,1,12,1.0,0.0,M,0.0,M,,*61
$GPGSA,A,3,01,02,03,04,05,06,07,08,09,10,11,12,1.0,1.0,1.0*30
$GPRMC,114742.070,A,4848.722,N,00855.389,E,000.0,000.0,131020,000.0,W*74
$GPGGA,114743.070,4848.722,N,00855.389,E,1,12,1.0,0.0,M,0.0,M,,*60
$GPGSA,A,3,01,02,03,04,05,06,07,08,09,10,11,12,1.0,1.0,1.0*30
$GPRMC,114743.070,A,4848.722,N,00855.389,E,000.0,000.0,131020,000.0,W*75
$GPGGA,114744.070,4848.722,N,00855.389,E,1,12,1.0,0.0,M,0.0,M,,*67
$GPGSA,A,3,01,02,03,04,05,06,07,08,09,10,11,12,1.0,1.0,1.0*30
$GPRMC,114744.070,A,4848.722,N,00855.389,E,000.0,000.0,131020,000.0,W*72
$GPGGA,114745.070,4848.722,N,00855.389,E,1,12,1.0,0.0,M,0.0,M,,*66
$GPGSA,A,3,01,02,03,04,05,06,07,08,09,10,11,12,1.0,1.0,1.0*30
$GPRMC,114745.070,A,4848.722,N,00855.389,E,000.0,000.0,131020,000.0,W*73
$GPGGA,114746.070,4848.722,N,00855.389,E,1,12,1.0,0.0,M,0.0,M,,*65
$GPGSA,A,3,01,02,03,04,05,06,07,08,09,10,11,12,1.0,1.0,1.0*30
$GPRMC,114746.070,A,4848.722,N,00855.389,E,000.0,000.0,131020,000.0,W*70
$GPGGA,114747.070,4848.722,N,00855.389,E,1,12,1.0,0.0,M,0.0,M,,*64
$GPGSA,A,3,01,02,03,04,05,06,07,08,09,10,11,12,1.0,1.0,1.0*30
$GPRMC,114747.070,A,4848.722,N,00855.389,E,000.0,000.0,131020,000.0,W*71
$GPGGA,114748.070,4848.722,N,00855.389,E,1,12,1.0,0.0,M,0.0,M,,*6B
$GPGSA,A,3,01,02,03,04,05,06,07,08,09,10,11,12,1.0,1.0,1.0*30
$GPRMC,114748.070,A,4848.722,N,00855.389,E,000.0,000.0,131020,000.0,W*7E
$GPGGA,114749.070,4848.722,N,00855.389,E,1,12,1.0,0.0,M,0.0,M,,*6A
$GPGSA,A,3,01,02,03,04,05,06,07,08,09,10,11,12,1.0,1.0,1.0*30
$GPRMC,114749.070,A,4848.722,N,00855.389,E,000.0,000.0,131020,000.0,W*7F
$GPGGA,114750.070,4848.722,N,00855.389,E,1,12,1.0,0.0,M,0.0,M,,*62
$GPGSA,A,3,01,02,03,04,05,06,07,08,09,10,11,12,1.0,1.0,1.0*30
$GPRMC,114750.070,A,4848.722,N,00855.389,E,000.0,000.0,131020,000.0,W*77
$GPGGA,114751.070,4848.722,N,00855.389,E,1,12,1.0,0.0,M,0.0,M,,*63
$GPGSA,A,3,01,02,03,04,05,06,07,08,09,10,11,12,1.0,1.0,1.0*30
$GPRMC,114751.070,A,4848.722,N,00855.389,E,000.0,000.0,131020,000.0,W*76
$GPGGA,114752.070,4848.722,N,00855.389,E,1,12,1.0,0.0,M,0.0,M,,*60
$GPGSA,A,3,01,02,03,04,05,06,07,08,09,10,11,12,1.0,1.0,1.0*30
$GPRMC,114752.070,A,4848.722,N,00855.389,E,000.0,000.0,131020,000.0,W*75
$GPGGA,114753.070,4848.722,N,00855.389,E,1,12,1.0,0.0,M,0.0,M,,*61
$GPGSA,A,3,01,02,03,04,05,06,07,08,09,10,11,12,1.0,1.0,1.0*30
$GPRMC,114753.070,A,4848.722,N,00855.389,E,000.0,000.0,131020,000.0,W*74
$GPGGA,114754.070,4848.722,N,00855.389,E,1,12,1.0,0.0,M,0.0,M,,*66
$GPGSA,A,3,01,02,03,04,05,06,07,08,09,10,11,12,1.0,1.0,1.0*30
$GPRMC,114754.070,A,4848.722,N,00855.389,E,000.0,000.0,131020,000.0,W*73
$GPGGA,114755.070,4848.722,N,00855.389,E,1,12,1.0,0.0,M,0.0,M,,*67
$GPGSA,A,3,01,02,03,04,05,06,07,08,09,10,11,12,1.0,1.0,1.0*30
$GPRMC,114755.070,A,4848.722,N,00855.389,E,000.0,000.0,131020,000.0,W*72
$GPGGA,114756.070,4848.722,N,00855.389,E,1,12,1.0,0.0,M,0.0,M,,*64
$GPGSA,A,3,01,02,03,04,05,06,07,08,09,10,11,12,1.0,1.0,1.0*30
$GPRMC,114756.070,A,4848.722,N,00855.389,E,000.0,000.0,131020,000.0,W*71
$GPGGA,114757.070,4848.722,N,00855.389,E,1,12,1.0,0.0,M,0.0,M,,*65
$GPGSA,A,3,01,02,03,04,05,06,07,08,09,10,11,12,1.0,1.0,1.0*30
$GPRMC,114757.070,A,4848.722,N,00855.389,E,000.0,000.0,131020,000.0,W*70
$GPGGA,114758.070,4848.722,N,00855.389,E,1,12,1.0,0.0,M,0.0,M,,*6A
$GPGSA,A,3,01,02,03,04,05,06,07,08,09,10,11,12,1.0,1.0,1.0*30
$GPRMC,114758.070,A,4848.722,N,00855.389,E,000.0,000.0,131020,000.0,W*7F
$GPGGA,114759.070,4848.722,N,00855.389,E,1,12,1.0,0.0,M,0.0,M,,*6B
$GPGSA,A,3,01,02,03,04,05,06,07,08,09,10,11,12,1.0,1.0,1.0*30
$GPRMC,114759.070,A,4848.722,N,00855.389,E,000.0,000.0,131020,000.0,W*7E
$GPGGA,114800.070,4848.722,N,00855.389,E,1,12,1.0,0.0,M,0.0,M,,*68
$GPGSA,A,3,01,02,03,04,05,06,07,08,09,10,11,12,1.0,1.0,1.0*30
$GPRMC,114800.070,A,4848.722,N,00855.389,E,000.0,000.0,131020,000.0,W*7D
$GPGGA,114801.070,4848.722,N,00855.389,E,1,12,1.0,0.0,M,0.0,M,,*69
$GPGSA,A,3,01,02,03,04,05,06,07,08,09,10,11,12,1.0,1.0,1.0*30
$GPRMC,114801.070,A,4848.722,N,00855.389,E,000.0,000.0,131020,000.0,W*7C
$GPGGA,114802.070,4848.722,N,00855.389,E,1,12,1.0,0.0,M,0.0,M,,*6A
$GPGSA,A,3,01,02,03,04,05,06,07,08,09,10,11,12,1.0,1.0,1.0*30
$GPRMC,114802.070,A,4848.722,N,00855.389,E,000.0,000.0,131020,000.0,W*7F
$GPGGA,114803.070,4848.722,N,00855.389,E,1,12,1.0,0.0,M,0.0,M,,*6B
$GPGSA,A,3,01,02,03,04,05,06,07,08,09,10,11,12,1.0,1.0,1.0*30
$GPRMC,114803.070,A,4848.722,N,00855.389,E,000.0,000.0,131020,000.0,W*7E
